Time (s),Altitude (m),Vertical velocity (m/s),Vertical acceleration (m/s²),Total velocity (m/s),Total acceleration (m/s²),Position East of launch (m),Position North of launch (m),Lateral distance (m),Lateral direction (°),Lateral velocity (m/s),Lateral acceleration (m/s²),Latitude (°),Longitude (°),Gravitational acceleration (m/s²),Angle of attack (°),Roll rate (r/s),Pitch rate (r/s),Yaw rate (r/s),Mass (g),Motor mass (g),Longitudinal moment of inertia (kg·m²),Rotational moment of inertia (kg·m²),CP location (cm),CG location (cm),Stability margin calibers (​),Mach number (​),Reynolds number (​),Thrust (N),Drag force (N),Drag coefficient (​),Axial drag coefficient (​),Friction drag coefficient (​),Pressure drag coefficient (​),Base drag coefficient (​),Normal force coefficient (​),Pitch moment coefficient (​),Yaw moment coefficient (​),Side force coefficient (​),Roll moment coefficient (​),Roll forcing coefficient (​),Roll damping coefficient (​),Pitch damping coefficient (​),Coriolis acceleration (m/s²),Reference length (cm),Reference area (cm²),Vertical orientation (zenith) (°),Lateral orientation (azimuth) (°),Wind velocity (m/s),Air temperature (°C),Air pressure (mbar),Speed of sound (m/s),Simulation time step (s),Computation time (s)
0.01,3.2722e-4,0.065446,6.5453,0.065446,6.5453,0,0,0,0,0,0,32,-106,9.7911,89.076,0,0,0,120097,59990,243.65,0.77316,NaN,347.22,NaN,0.012096,1397462,1961.9,2.2002e-6,0.72491,7.5667e-6,0.59772,0.0071667,0.12002,NaN,NaN,NaN,NaN,NaN,NaN,NaN,NaN,8.0944e-6,20.32,324.29,90,0,4.0587,7.0765,875.45,335.59,0.01,0.01692
0.02,0.0022087,0.31087,24.545,0.31087,24.545,0,0,0,0,0,0,32,-106,9.7911,85.588,0,0,0,120075,59968,243.62,0.77307,NaN,347.22,NaN,0.012042,1391267,4122.9,2.2893e-4,0.72491,7.9435e-4,0.59772,0.0071667,0.12002,NaN,NaN,NaN,NaN,NaN,NaN,NaN,NaN,3.8449e-5,20.32,324.29,90,0,4.0293,7.0765,875.45,335.59,0.01,0.017412
0.03,0.0067837,0.60415,29.332,0.60415,29.332,0,0,0,0,0,0,32,-106,9.7911,81.411,0,0,0,120050,59943,243.6,0.77297,NaN,347.22,NaN,0.012054,1392626,4696.7,0.0016166,0.72491,0.0055983,0.59772,0.0071667,0.12002,NaN,NaN,NaN,NaN,NaN,NaN,NaN,NaN,7.4722e-5,20.32,324.29,90,0,3.9998,7.0765,875.45,335.59,0.01,0.017759
0.04,0.014542,0.94759,34.349,0.94759,34.349,0,0,0,0,0,0,32,-106,9.7911,76.577,0,0,0,120023,59916,243.57,0.77286,NaN,347.21,NaN,0.012163,1405260,5297.9,0.0059407,0.72491,0.020205,0.59772,0.0071668,0.12002,NaN,NaN,NaN,NaN,NaN,NaN,NaN,NaN,1.172e-4,20.32,324.29,90,0,3.9704,7.0764,875.45,335.59,0.01,0.018088
0.05,0.025895,1.3229,37.535,1.3229,37.535,0,0,0,0,0,0,32,-106,9.7911,71.444,0,0,0,119993,59886,243.54,0.77274,NaN,347.21,NaN,0.012387,1431130,5678.8,0.01528,0.72491,0.050106,0.59772,0.007167,0.12002,NaN,NaN,NaN,NaN,NaN,NaN,NaN,NaN,1.6362e-4,20.32,324.29,90,0,3.9409,7.0763,875.45,335.59,0.01,0.018417
0.06,0.041116,1.7214,39.86,1.7214,39.86,0,0,0,0,0,0,32,-106,9.7911,66.448,0,0,0,119962,59855,243.5,0.77261,NaN,347.21,NaN,0.012837,1483090,5956.3,0.031428,0.72491,0.095964,0.59772,0.0071674,0.12002,NaN,NaN,NaN,NaN,NaN,NaN,NaN,NaN,2.1291e-4,20.32,324.29,90,0,3.9491,7.0762,875.45,335.59,0.01,0.019181
0.07,0.06041,2.1375,41.614,2.1375,41.614,0,0,0,0,0,0,32,-106,9.7911,61.625,0,0,0,119929,59822,243.47,0.77248,NaN,347.21,NaN,0.013402,1548382,6165,0.055989,0.72491,0.15684,0.59772,0.0071678,0.12002,NaN,NaN,NaN,NaN,NaN,NaN,NaN,NaN,2.6437e-4,20.32,324.29,90,0,3.9573,7.0761,875.44,335.59,0.01,0.019558
0.08,0.08393,2.5664,42.9,2.5664,42.9,0,0,0,0,0,0,32,-106,9.7911,57.089,0,0,0,119896,59789,243.43,0.77235,NaN,347.21,NaN,0.014075,1626122,6317.6,0.090012,0.72491,0.22862,0.59772,0.0071684,0.12003,NaN,NaN,NaN,NaN,NaN,NaN,NaN,NaN,3.1742e-4,20.32,324.29,90,0,3.9654,7.076,875.44,335.59,0.01,0.019892
0.09,0.11179,3.0055,43.916,3.0055,43.916,0,0,0,0,0,0,32,-106,9.7911,52.897,0,0,0,119862,59755,243.39,0.77221,NaN,347.2,NaN,0.014846,1715196,6437.6,0.13415,0.72491,0.30626,0.59772,0.0071692,0.12003,NaN,NaN,NaN,NaN,NaN,NaN,NaN,NaN,3.7172e-4,20.32,324.29,90,0,3.9736,7.0758,875.44,335.59,0.01,0.020224
0.1,0.14408,3.4527,44.731,3.4527,44.731,0,0,0,0,0,0,32,-106,9.7911,49.07,0,0,0,119828,59721,243.36,0.77207,NaN,347.2,NaN,0.015705,1814358,6533.5,0.18872,0.72492,0.38503,0.59771,0.00717,0.12003,NaN,NaN,NaN,NaN,NaN,NaN,NaN,NaN,4.2704e-4,20.32,324.29,90,0,3.9817,7.0756,875.44,335.59,0.01,0.02058
0.11,0.18088,3.9066,45.395,3.9066,45.395,0,0,0,0,0,0,32,-106,9.7911,46.315,0,0,0,119793,59686,243.32,0.77193,NaN,347.2,NaN,0.016854,1947164,6611.1,0.25137,0.72492,0.44527,0.59771,0.0071712,0.12004,NaN,NaN,NaN,NaN,NaN,NaN,NaN,NaN,4.8317e-4,20.32,324.29,90,0,4.0901,7.0753,875.43,335.59,0.01,0.020922
0.12,0.22224,4.3659,45.939,4.3659,45.939,0,0,0,0,0,0,32,-106,9.7911,43.88,0,0,0,119758,59651,243.28,0.77179,NaN,347.2,NaN,0.018049,2085243,6674.5,0.32382,0.72492,0.50016,0.59771,0.0071726,0.12004,NaN,NaN,NaN,NaN,NaN,NaN,NaN,NaN,5.3998e-4,20.32,324.29,90,0,4.1986,7.0751,875.43,335.59,0.01,0.021317
0.13,0.26822,4.8308,46.491,4.8308,46.491,0,0,0,0,0,0,32,-106,9.7911,41.719,0,0,0,119723,59616,243.24,0.77165,NaN,347.2,NaN,0.019285,2228030,6738.6,0.40623,0.72493,0.54961,0.59771,0.0071741,0.12005,NaN,NaN,NaN,NaN,NaN,NaN,NaN,NaN,5.9747e-4,20.32,324.29,90,0,4.307,7.0748,875.42,335.59,0.01,0.021657
0.14,0.31888,5.3003,46.967,5.3003,46.967,0,0,0,0,0,0,32,-106,9.7911,39.795,0,0,0,119687,59580,243.2,0.7715,NaN,347.19,NaN,0.020557,2374860,6793.7,0.49859,0.72493,0.59373,0.5977,0.0071758,0.12005,NaN,NaN,NaN,NaN,NaN,NaN,NaN,NaN,6.5555e-4,20.32,324.29,90,0,4.4154,7.0744,875.42,335.59,0.01,0.022025
0.15,0.37424,5.7731,47.28,5.7731,47.28,0,0,0,0,0,0,32,-106,9.7911,38.082,0,0,0,119651,59544,243.17,0.77136,NaN,347.19,NaN,0.021855,2524900,6829.3,0.60062,0.72494,0.63274,0.5977,0.0071776,0.12006,NaN,NaN,NaN,NaN,NaN,NaN,NaN,NaN,7.1402e-4,20.32,324.29,90,0,4.5238,7.0741,875.41,335.59,0.01,0.022471
0.16,0.43434,6.2455,47.252,6.2455,47.252,0,0,0,0,0,0,32,-106,9.7911,36.105,0,0,0,119616,59509,243.13,0.77121,NaN,347.19,NaN,0.023035,2661154,6824,0.71388,0.72494,0.67701,0.5977,0.0071793,0.12007,NaN,NaN,NaN,NaN,NaN,NaN,NaN,NaN,7.7245e-4,20.32,324.29,90,0,4.5551,7.0737,875.4,335.59,0.01,0.022898
0.17,0.49915,6.7175,47.205,6.7175,47.205,0,0,0,0,0,0,32,-106,9.7911,34.324,0,0,0,119580,59473,243.09,0.77107,NaN,347.19,NaN,0.024238,2800129,6816.4,0.83564,0.72495,0.71577,0.59769,0.0071812,0.12008,NaN,NaN,NaN,NaN,NaN,NaN,NaN,NaN,8.3083e-4,20.32,324.29,90,0,4.5865,7.0733,875.4,335.59,0.01,0.023264
0.18,0.5687,7.1917,47.432,7.1917,47.432,0,0,0,0,0,0,32,-106,9.7911,32.705,0,0,0,119544,59437,243.05,0.77092,NaN,347.19,NaN,0.025468,2942208,6841.7,0.96638,0.72496,0.74974,0.59769,0.0071832,0.12008,NaN,NaN,NaN,NaN,NaN,NaN,NaN,NaN,8.8948e-4,20.32,324.29,90,0,4.6179,7.0728,875.39,335.59,0.01,0.023638
0.19,0.643,7.6679,47.624,7.6679,47.624,0,0,0,0,0,0,32,-106,9.7911,31.23,0,0,0,119508,59401,243.01,0.77078,NaN,347.18,NaN,0.026721,3086981,6862.7,1.1058,0.72496,0.77935,0.59769,0.0071853,0.12009,NaN,NaN,NaN,NaN,NaN,NaN,NaN,NaN,9.4837e-4,20.32,324.29,90,0,4.6493,7.0723,875.38,335.58,0.01,0.02401
0.2,0.72205,8.1434,47.558,8.1434,47.558,0,0,0,0,0,0,32,-106,9.7911,29.889,0,0,0,119472,59365,242.97,0.77063,NaN,347.18,NaN,0.027989,3233418,6852.9,1.2531,0.72497,0.80492,0.59768,0.0071876,0.1201,NaN,NaN,NaN,NaN,NaN,NaN,NaN,NaN,0.0010072,20.32,324.29,90,0,4.6807,7.0718,875.37,335.58,0.01,0.02448
0.21,0.80586,8.6187,47.542,8.6187,47.542,0,0,0,0,0,0,32,-106,9.7911,28.368,0,0,0,119436,59329,242.93,0.77049,NaN,347.18,NaN,0.029188,3371878,6849.1,1.4088,0.72498,0.83214,0.59768,0.0071898,0.12011,NaN,NaN,NaN,NaN,NaN,NaN,NaN,NaN,0.001066,20.32,324.29,90,0,4.654,7.0713,875.36,335.58,0.01,0.024932
0.22,0.89443,9.0941,47.55,9.0941,47.55,0,0,0,0,0,0,32,-106,9.7911,26.968,0,0,0,119400,59293,242.89,0.77034,NaN,347.18,NaN,0.030406,3512545,6848.1,1.5712,0.72499,0.85526,0.59767,0.0071922,0.12012,NaN,NaN,NaN,NaN,NaN,NaN,NaN,NaN,0.0011248,20.32,324.29,90,0,4.6273,7.0707,875.36,335.58,0.01,0.025402
0.23,0.98773,9.5669,47.279,9.5669,47.279,0,0,0,0,0,0,32,-106,9.7911,25.683,0,0,0,119364,59257,242.86,0.7702,NaN,347.18,NaN,0.031633,3654305,6813.8,1.7391,0.72499,0.87461,0.59767,0.0071947,0.12013,NaN,NaN,NaN,NaN,NaN,NaN,NaN,NaN,0.0011832,20.32,324.29,90,0,4.6006,7.0701,875.35,335.58,0.01,0.025814
0.24,1.0858,10.037,47.016,10.037,47.016,0,0,0,0,0,0,32,-106,9.7911,24.499,0,0,0,119329,59222,242.82,0.77005,NaN,347.17,NaN,0.032868,3796941,6780.7,1.912,0.725,0.89068,0.59766,0.0071973,0.12014,NaN,NaN,NaN,NaN,NaN,NaN,NaN,NaN,0.0012414,20.32,324.29,90,0,4.574,7.0694,875.33,335.58,0.01,0.026262
0.25,1.1885,10.504,46.763,10.504,46.763,0,0,0,0,0,0,32,-106,9.7911,23.407,0,0,0,119293,59186,242.78,0.76991,NaN,347.17,NaN,0.034109,3940276,6748.7,2.0896,0.72501,0.90388,0.59766,0.0072,0.12015,NaN,NaN,NaN,NaN,NaN,NaN,NaN,NaN,0.0012992,20.32,324.29,90,0,4.5473,7.0688,875.32,335.58,0.01,0.026697
0.26,1.2958,10.97,46.519,10.97,46.519,0,0,0,0,0,0,32,-106,9.7911,22.814,0,0,0,119258,59151,242.74,0.76977,NaN,347.17,NaN,0.035463,4096579,6717.7,2.2749,0.72502,0.91034,0.59765,0.0072031,0.12016,NaN,NaN,NaN,NaN,NaN,NaN,NaN,NaN,0.0013567,20.32,324.29,90,0,4.6145,7.0681,875.31,335.58,0.01,0.027073
0.27,1.4078,11.432,46.283,11.432,46.283,0,0,0,0,0,0,32,-106,9.7911,22.269,0,0,0,119223,59116,242.7,0.76962,NaN,347.17,NaN,0.036813,4252533,6687.8,2.4662,0.72503,0.91583,0.59765,0.0072062,0.12018,NaN,NaN,NaN,NaN,NaN,NaN,NaN,NaN,0.001414,20.32,324.29,90,0,4.6816,7.0673,875.3,335.58,0.01,0.027453
0.28,1.5245,11.893,46.056,11.893,46.056,0,0,0,0,0,0,32,-106,9.7911,21.767,0,0,0,119188,59081,242.67,0.76948,NaN,347.17,NaN,0.03816,4408114,6658.9,2.6634,0.72504,0.92049,0.59764,0.0072096,0.12019,NaN,NaN,NaN,NaN,NaN,NaN,NaN,NaN,0.0014709,20.32,324.29,90,0,4.7488,7.0666,875.29,335.58,0.01,0.027833
0.29,1.6457,12.351,45.837,12.351,45.837,0,0,0,0,0,0,32,-106,9.7911,21.302,0,0,0,119153,59046,242.63,0.76934,NaN,347.16,NaN,0.039504,4563304,6631.1,2.8665,0.72505,0.92443,0.59763,0.007213,0.1202,NaN,NaN,NaN,NaN,NaN,NaN,NaN,NaN,0.0015276,20.32,324.29,90,0,4.816,7.0658,875.28,335.58,0.01,0.028176
0.3,1.7715,12.807,45.625,12.807,45.625,0,0,0,0,0,0,32,-106,9.7911,20.871,0,0,0,119119,59012,242.59,0.7692,NaN,347.16,NaN,0.040845,4718090,6604.2,3.0754,0.72506,0.92778,0.59763,0.0072165,0.12022,NaN,NaN,NaN,NaN,NaN,NaN,NaN,NaN,0.001584,20.32,324.29,90,0,4.8832,7.065,875.26,335.58,0.01,0.028515
0.31,1.9018,13.261,45.422,13.261,45.422,0,0,0,0,0,0,32,-106,9.7911,20.369,0,0,0,119084,58977,242.55,0.76906,NaN,347.16,NaN,0.042154,4869272,6578.3,3.288,0.72507,0.93128,0.59762,0.00722,0.12023,NaN,NaN,NaN,NaN,NaN,NaN,NaN,NaN,0.0016402,20.32,324.29,90,0,4.9238,7.0641,875.25,335.58,0.01,0.028851
0.32,2.0367,13.714,45.215,13.714,45.215,0,0,0,0,0,0,32,-106,9.7911,19.9,0,0,0,119050,58943,242.52,0.76892,NaN,347.16,NaN,0.043461,5020129,6551.9,3.5057,0.72508,0.93415,0.59762,0.0072237,0.12025,NaN,NaN,NaN,NaN,NaN,NaN,NaN,NaN,0.0016961,20.32,324.29,90,0,4.9644,7.0633,875.23,335.58,0.01,0.029181
0.33,2.1761,14.165,45.141,14.165,45.141,0,0,0,0,0,0,32,-106,9.7911,19.46,0,0,0,119015,58908,242.48,0.76878,NaN,347.16,NaN,0.044768,5171056,6541.4,3.729,0.7251,0.93649,0.59761,0.0072275,0.12026,NaN,NaN,NaN,NaN,NaN,NaN,NaN,NaN,0.0017519,20.32,324.29,90,0,5.0049,7.0624,875.22,335.58,0.01,0.029524
0.34,2.32,14.616,45.073,14.616,45.073,0,0,0,0,0,0,32,-106,9.7911,19.045,0,0,0,118981,58874,242.44,0.76864,NaN,347.15,NaN,0.046076,5322047,6531.7,3.9579,0.72511,0.93836,0.5976,0.0072314,0.12028,NaN,NaN,NaN,NaN,NaN,NaN,NaN,NaN,0.0018077,20.32,324.29,90,0,5.0455,7.0614,875.2,335.58,0.01,0.029858
0.35,2.4684,15.064,44.897,15.064,44.897,0,0,0,0,0,0,32,-106,9.7911,18.656,0,0,0,118947,58840,242.4,0.76851,NaN,347.15,NaN,0.047381,5472721,6509.1,4.1918,0.72512,0.93983,0.59759,0.0072354,0.12029,NaN,NaN,NaN,NaN,NaN,NaN,NaN,NaN,0.0018632,20.32,324.29,90,0,5.0861,7.0605,875.19,335.58,0.01,0.03029
0.36,2.6213,15.512,44.727,15.512,44.727,0,0,0,0,0,0,32,-106,9.7911,18.162,0,0,0,118913,58806,242.37,0.76837,NaN,347.15,NaN,0.048647,5618964,6487.4,4.4256,0.72513,0.94127,0.59759,0.0072393,0.12031,NaN,NaN,NaN,NaN,NaN,NaN,NaN,NaN,0.0019185,20.32,324.29,90,0,5.0885,7.0595,875.17,335.58,0.01,0.030764
0.37,2.7786,15.957,44.554,15.957,44.554,0,0,0,0,0,0,32,-106,9.7911,17.695,0,0,0,118879,58772,242.33,0.76823,NaN,347.15,NaN,0.049913,5765030,6465.1,4.6633,0.72515,0.94219,0.59758,0.0072434,0.12032,NaN,NaN,NaN,NaN,NaN,NaN,NaN,NaN,0.0019736,20.32,324.29,90,0,5.0909,7.0584,875.15,335.58,0.01,0.03199
0.38,2.9404,16.401,44.397,16.401,44.397,0,0,0,0,0,0,32,-106,9.7911,17.252,0,0,0,118845,58738,242.29,0.76809,NaN,347.14,NaN,0.051177,5910940,6444.9,4.9047,0.72516,0.94264,0.59757,0.0072476,0.12034,NaN,NaN,NaN,NaN,NaN,NaN,NaN,NaN,0.0020285,20.32,324.29,90,0,5.0933,7.0574,875.14,335.58,0.01,0.032523
0.39,3.1066,16.843,44.247,16.843,44.247,0,0,0,0,0,0,32,-106,9.7911,16.832,0,0,0,118811,58704,242.26,0.76796,NaN,347.14,NaN,0.052439,6056685,6425.5,5.1497,0.72517,0.94266,0.59756,0.0072519,0.12036,NaN,NaN,NaN,NaN,NaN,NaN,NaN,NaN,0.0020832,20.32,324.29,90,0,5.0957,7.0563,875.12,335.58,0.01,0.033011
0.4,3.2773,17.284,44.093,17.284,44.093,0,0,0,0,0,0,32,-106,9.7911,16.434,0,0,0,118778,58671,242.22,0.76782,NaN,347.14,NaN,0.0537,6202225,6405.6,5.3967,0.72519,0.94203,0.59756,0.0072563,0.12037,NaN,NaN,NaN,NaN,NaN,NaN,NaN,NaN,0.0021377,20.32,324.29,90,0,5.0981,7.0552,875.1,335.57,0.01,0.033472
0.41,3.4523,17.724,43.944,17.724,43.944,0,0,0,0,0,0,32,-106,9.7911,16.151,0,0,0,118744,58637,242.19,0.76768,NaN,347.14,NaN,0.054986,6350652,6386.4,5.653,0.7252,0.94119,0.59755,0.0072608,0.12039,NaN,NaN,NaN,NaN,NaN,NaN,NaN,NaN,0.0021921,20.32,324.29,90,0,5.1329,7.0541,875.08,335.57,0.01,0.033934
0.42,3.6317,18.162,43.812,18.162,43.812,0,0,0,0,0,0,32,-106,9.7911,15.883,0,0,0,118711,58604,242.15,0.76755,NaN,347.14,NaN,0.05627,6498782,6369.2,5.913,0.72522,0.94009,0.59754,0.0072655,0.12041,NaN,NaN,NaN,NaN,NaN,NaN,NaN,NaN,0.0022463,20.32,324.29,90,0,5.1677,7.0529,875.06,335.57,0.01,0.034393
0.43,3.8155,18.599,43.685,18.599,43.685,0,0,0,0,0,0,32,-106,9.7911,15.628,0,0,0,118677,58570,242.11,0.76741,NaN,347.14,NaN,0.057551,6646621,6352.6,6.1765,0.72523,0.93878,0.59753,0.0072703,0.12043,NaN,NaN,NaN,NaN,NaN,NaN,NaN,NaN,0.0023003,20.32,324.29,90,0,5.2026,7.0517,875.04,335.57,0.01,0.034849
0.44,4.0037,19.034,43.554,19.034,43.554,0,0,0,0,0,0,32,-106,9.7911,15.385,0,0,0,118644,58537,242.08,0.76728,NaN,347.13,NaN,0.058829,6794143,6335.5,6.4437,0.72525,0.9373,0.59752,0.0072752,0.12045,NaN,NaN,NaN,NaN,NaN,NaN,NaN,NaN,0.0023541,20.32,324.29,90,0,5.2374,7.0505,875.02,335.57,0.01,0.035284
0.45,4.1962,19.468,43.427,19.468,43.427,0,0,0,0,0,0,32,-106,9.7911,15.153,0,0,0,118611,58504,242.04,0.76715,NaN,347.13,NaN,0.060105,6941355,6319,6.7145,0.72526,0.93569,0.59751,0.0072801,0.12047,NaN,NaN,NaN,NaN,NaN,NaN,NaN,NaN,0.0024079,20.32,324.29,90,0,5.2723,7.0492,875,335.57,0.01,0.035728
0.46,4.3931,19.901,43.316,19.901,43.316,0,0,0,0,0,0,32,-106,9.7911,14.762,0,0,0,118578,58471,242.01,0.76701,NaN,347.13,NaN,0.06133,7082742,6304.3,6.9673,0.72528,0.93254,0.5975,0.007285,0.12049,NaN,NaN,NaN,NaN,NaN,NaN,NaN,NaN,0.0024614,20.32,324.29,90,0,5.2441,7.0479,874.98,335.57,0.01,0.036185
0.47,4.5942,20.333,43.21,20.333,43.21,0,0,0,0,0,0,32,-106,9.7911,14.387,0,0,0,118545,58438,241.97,0.76688,NaN,347.13,NaN,0.062555,7224084,6290.2,7.2211,0.72529,0.92904,0.59749,0.00729,0.12051,NaN,NaN,NaN,NaN,NaN,NaN,NaN,NaN,0.0025149,20.32,324.29,90,0,5.2159,7.0466,874.96,335.57,0.01,0.036654
0.48,4.7997,20.764,43.098,20.764,43.098,0,0,0,0,0,0,32,-106,9.7911,14.028,0,0,0,118512,58405,241.93,0.76674,NaN,347.13,NaN,0.06378,7365344,6275.5,7.4758,0.72531,0.92527,0.59749,0.0072951,0.12053,NaN,NaN,NaN,NaN,NaN,NaN,NaN,NaN,0.0025681,20.32,324.29,90,0,5.1877,7.0453,874.94,335.57,0.01,0.037139
0.49,5.0095,21.194,42.992,21.194,42.992,0,0,0,0,0,0,32,-106,9.7911,13.682,0,0,0,118479,58372,241.9,0.76661,NaN,347.12,NaN,0.065004,7506520,6261.4,7.7319,0.72533,0.92129,0.59748,0.0073002,0.12055,NaN,NaN,NaN,NaN,NaN,NaN,NaN,NaN,0.0026213,20.32,324.29,90,0,5.1596,7.0439,874.92,335.57,0.01,0.03776
0.5,5.2236,21.623,42.899,21.623,42.899,0,0,0,0,0,0,32,-106,9.7911,13.35,0,0,0,118446,58339,241.86,0.76648,NaN,347.12,NaN,0.066227,7647640,6248.9,7.9894,0.72534,0.91716,0.59747,0.0073055,0.12057,NaN,NaN,NaN,NaN,NaN,NaN,NaN,NaN,0.0026744,20.32,324.29,90,0,5.1314,7.0425,874.89,335.57,0.01,0.038337
0.51,5.442,22.051,42.81,22.051,42.81,0,0,0,0,0,0,32,-106,9.7911,12.941,0,0,0,118414,58307,241.83,0.76635,NaN,347.12,NaN,0.067426,7785901,6236.9,8.2315,0.72536,0.91167,0.59746,0.0073108,0.12059,NaN,NaN,NaN,NaN,NaN,NaN,NaN,NaN,0.0027273,20.32,324.29,90,0,5.0669,7.0411,874.87,335.57,0.01,0.03874
0.52,5.6646,22.479,42.828,22.479,42.828,0,0,0,0,0,0,32,-106,9.7911,12.546,0,0,0,118381,58274,241.79,0.76621,NaN,347.12,NaN,0.068628,7924598,6237.6,8.4745,0.72538,0.906,0.59745,0.0073161,0.12061,NaN,NaN,NaN,NaN,NaN,NaN,NaN,NaN,0.0027803,20.32,324.29,90,0,5.0025,7.0397,874.85,335.56,0.01,0.039073
0.53,5.8915,22.908,42.849,22.908,42.849,0,0,0,0,0,0,32,-106,9.7911,12.165,0,0,0,118348,58241,241.76,0.76608,NaN,347.12,NaN,0.069834,8063722,6238.6,8.7187,0.72539,0.90021,0.59744,0.0073216,0.12063,NaN,NaN,NaN,NaN,NaN,NaN,NaN,NaN,0.0028333,20.32,324.29,90,0,4.9381,7.0382,874.82,335.56,0.01,0.039567
0.54,6.1228,23.335,42.761,23.335,42.761,0,0,0,0,0,0,32,-106,9.7911,11.797,0,0,0,118315,58209,241.72,0.76595,NaN,347.11,NaN,0.071041,8202887,6226.7,8.9636,0.72541,0.89435,0.59743,0.0073272,0.12066,NaN,NaN,NaN,NaN,NaN,NaN,NaN,NaN,0.0028861,20.32,324.29,90,0,4.8737,7.0367,874.8,335.56,0.01,0.039894
0.55,6.3582,23.762,42.677,23.762,42.677,0,0,0,0,0,0,32,-106,9.7911,11.442,0,0,0,118283,58176,241.69,0.76582,NaN,347.11,NaN,0.072248,8342088,6215.3,9.2096,0.72543,0.88848,0.59742,0.0073329,0.12068,NaN,NaN,NaN,NaN,NaN,NaN,NaN,NaN,0.0029389,20.32,324.29,90,0,4.8093,7.0352,874.77,335.56,0.01,0.040222
0.56,6.598,24.188,42.605,24.188,42.605,0,0,0,0,0,0,32,-106,9.7911,11.28,0,0,0,118250,58143,241.65,0.76568,NaN,347.11,NaN,0.073502,8486663,6205.4,9.5025,0.72545,0.88575,0.59741,0.0073389,0.1207,NaN,NaN,NaN,NaN,NaN,NaN,NaN,NaN,0.0029916,20.32,324.29,90,0,4.8245,7.0336,874.75,335.56,0.01,0.040546
0.57,6.842,24.613,42.536,24.613,42.536,0,0,0,0,0,0,32,-106,9.7911,11.124,0,0,0,118218,58111,241.62,0.76555,NaN,347.11,NaN,0.074754,8631064,6195.8,9.7991,0.72547,0.88308,0.59739,0.007345,0.12073,NaN,NaN,NaN,NaN,NaN,NaN,NaN,NaN,0.0030442,20.32,324.29,90,0,4.8397,7.032,874.72,335.56,0.01,0.040874
0.58,7.0903,25.038,42.462,25.038,42.462,0,0,0,0,0,0,32,-106,9.7911,10.974,0,0,0,118185,58078,241.58,0.76542,NaN,347.11,NaN,0.076005,8775268,6185.7,10.1,0.72549,0.88047,0.59738,0.0073512,0.12075,NaN,NaN,NaN,NaN,NaN,NaN,NaN,NaN,0.0030967,20.32,324.29,90,0,4.8549,7.0304,874.7,335.56,0.01,0.041198
0.59,7.3428,25.462,42.391,25.462,42.391,0,0,0,0,0,0,32,-106,9.7911,10.828,0,0,0,118153,58046,241.55,0.76529,NaN,347.1,NaN,0.077254,8919281,6175.9,10.404,0.7255,0.87792,0.59737,0.0073574,0.12078,NaN,NaN,NaN,NaN,NaN,NaN,NaN,NaN,0.0031491,20.32,324.29,90,0,4.8701,7.0288,874.67,335.56,0.01,0.041525
0.6,7.5995,25.885,42.324,25.885,42.324,0,0,0,0,0,0,32,-106,9.7911,10.688,0,0,0,118121,58014,241.51,0.76516,NaN,347.1,NaN,0.078502,9063113,6166.5,10.712,0.72552,0.87544,0.59736,0.0073638,0.1208,NaN,NaN,NaN,NaN,NaN,NaN,NaN,NaN,0.0032015,20.32,324.29,90,0,4.8853,7.0271,874.64,335.56,0.01,0.041849
0.61,7.8604,26.307,42.259,26.307,42.259,0,0,0,0,0,0,32,-106,9.7911,10.344,0,0,0,118088,57981,241.48,0.76503,NaN,347.1,NaN,0.079695,9200619,6157.5,10.961,0.72554,0.86924,0.59735,0.00737,0.12083,NaN,NaN,NaN,NaN,NaN,NaN,NaN,NaN,0.0032537,20.32,324.29,90,0,4.8019,7.0254,874.61,335.56,0.01,0.042174
0.62,8.1256,26.729,42.198,26.729,42.198,0,0,0,0,0,0,32,-106,9.7911,10.011,0,0,0,118056,57949,241.44,0.7649,NaN,347.1,NaN,0.080889,9338230,6148.8,11.212,0.72556,0.86312,0.59734,0.0073763,0.12085,NaN,NaN,NaN,NaN,NaN,NaN,NaN,NaN,0.0033059,20.32,324.29,90,0,4.7185,7.0237,874.59,335.56,0.01,0.042501
0.63,8.395,27.151,42.139,27.151,42.139,0,0,0,0,0,0,32,-106,9.7911,9.6881,0,0,0,118024,57917,241.41,0.76477,NaN,347.1,NaN,0.082084,9475940,6140.5,11.465,0.72558,0.85709,0.59733,0.0073827,0.12088,NaN,NaN,NaN,NaN,NaN,NaN,NaN,NaN,0.003358,20.32,324.29,90,0,4.6352,7.0219,874.56,335.55,0.01,0.042829
0.64,8.6686,27.572,42.092,27.572,42.092,0,0,0,0,0,0,32,-106,9.7911,9.3744,0,0,0,117992,57885,241.37,0.76464,NaN,347.09,NaN,0.08328,9613772,6133.5,11.72,0.7256,0.85118,0.59731,0.0073892,0.1209,NaN,NaN,NaN,NaN,NaN,NaN,NaN,NaN,0.0034101,20.32,324.29,90,0,4.5518,7.0202,874.53,335.55,0.01,0.04315
0.65,8.9465,27.992,42.047,27.992,42.047,0,0,0,0,0,0,32,-106,9.7911,9.0697,0,0,0,117959,57852,241.34,0.76451,NaN,347.09,NaN,0.084477,9751723,6126.8,11.977,0.72563,0.8454,0.5973,0.0073959,0.12093,NaN,NaN,NaN,NaN,NaN,NaN,NaN,NaN,0.0034621,20.32,324.29,90,0,4.4684,7.0183,874.5,335.55,0.01,0.043479
0.66,9.2285,28.412,41.996,28.412,41.996,0,0,0,0,0,0,32,-106,9.7911,8.9108,0,0,0,117927,57820,241.3,0.76438,NaN,347.09,NaN,0.085707,9893441,6119.4,12.284,0.72565,0.84238,0.59729,0.0074027,0.12095,NaN,NaN,NaN,NaN,NaN,NaN,NaN,NaN,0.003514,20.32,324.29,90,0,4.4547,7.0165,874.47,335.55,0.01,0.043802
0.67,9.5147,28.831,41.947,28.831,41.947,0,0,0,0,0,0,32,-106,9.7911,8.7566,0,0,0,117895,57788,241.27,0.76425,NaN,347.09,NaN,0.086936,10035057,6112.3,12.594,0.72567,0.83945,0.59728,0.0074097,0.12098,NaN,NaN,NaN,NaN,NaN,NaN,NaN,NaN,0.0035659,20.32,324.29,90,0,4.4409,7.0147,874.44,335.55,0.01,0.044126
0.68,9.8051,29.25,41.9,29.25,41.9,0,0,0,0,0,0,32,-106,9.7911,8.6068,0,0,0,117863,57756,241.23,0.76412,NaN,347.09,NaN,0.088164,10176576,6105.4,12.908,0.72569,0.8366,0.59726,0.0074168,0.12101,NaN,NaN,NaN,NaN,NaN,NaN,NaN,NaN,0.0036177,20.32,324.29,90,0,4.4272,7.0128,874.41,335.55,0.01,0.044464
0.69,10.1,29.669,41.856,29.669,41.856,0,0,0,0,0,0,32,-106,9.7911,8.4612,0,0,0,117831,57724,241.2,0.76399,NaN,347.08,NaN,0.089392,10318001,6098.9,13.226,0.72571,0.83383,0.59725,0.007424,0.12104,NaN,NaN,NaN,NaN,NaN,NaN,NaN,NaN,0.0036695,20.32,324.29,90,0,4.4135,7.0109,874.38,335.55,0.01,0.045213
0.7,10.398,30.087,41.814,30.087,41.814,0,0,0,0,0,0,32,-106,9.7911,8.3197,0,0,0,117799,57692,241.16,0.76386,NaN,347.08,NaN,0.090619,10459338,6092.5,13.547,0.72574,0.83113,0.59724,0.0074313,0.12107,NaN,NaN,NaN,NaN,NaN,NaN,NaN,NaN,0.0037212,20.32,324.29,90,0,4.3997,7.0089,874.34,335.55,0.01,0.045656
0.71,10.701,30.504,41.773,30.504,41.773,0,0,0,0,0,0,32,-106,9.7911,8.2753,0,0,0,117767,57660,241.13,0.76373,NaN,347.08,NaN,0.091867,10603083,6086.5,13.908,0.72576,0.83031,0.59722,0.0074388,0.1211,NaN,NaN,NaN,NaN,NaN,NaN,NaN,NaN,0.0037728,20.32,324.29,90,0,4.4367,7.0069,874.31,335.55,0.01,0.045997
0.72,11.009,30.922,41.735,30.922,41.735,0,0,0,0,0,0,32,-106,9.7911,8.2322,0,0,0,117735,57628,241.09,0.7636,NaN,347.08,NaN,0.093114,10746692,6080.7,14.274,0.72578,0.82951,0.59721,0.0074464,0.12113,NaN,NaN,NaN,NaN,NaN,NaN,NaN,NaN,0.0038244,20.32,324.29,90,0,4.4736,7.0049,874.28,335.54,0.01,0.046329
0.73,11.32,31.339,41.698,31.339,41.698,0,0,0,0,0,0,32,-106,9.7911,8.1903,0,0,0,117703,57596,241.06,0.76347,NaN,347.08,NaN,0.094359,1.089e7,6075.1,14.644,0.72581,0.82873,0.5972,0.0074541,0.12116,NaN,NaN,NaN,NaN,NaN,NaN,NaN,NaN,0.003876,20.32,324.29,90,0,4.5106,7.0029,874.25,335.54,0.01,0.046654
0.74,11.635,31.755,41.663,31.755,41.663,0,0,0,0,0,0,32,-106,9.7911,8.1496,0,0,0,117672,57565,241.03,0.76334,NaN,347.07,NaN,0.095604,11033528,6069.7,15.019,0.72583,0.82798,0.59718,0.0074619,0.12119,NaN,NaN,NaN,NaN,NaN,NaN,NaN,NaN,0.0039275,20.32,324.29,90,0,4.5475,7.0009,874.21,335.54,0.01,0.046984
0.75,11.955,32.171,41.63,32.171,41.63,0,0,0,0,0,0,32,-106,9.7911,8.1101,0,0,0,117640,57533,240.99,0.76321,NaN,347.07,NaN,0.096848,11176765,6064.5,15.398,0.72586,0.82725,0.59717,0.0074697,0.12122,NaN,NaN,NaN,NaN,NaN,NaN,NaN,NaN,0.003979,20.32,324.29,90,0,4.5844,6.9988,874.18,335.54,0.01,0.047311
0.76,12.279,32.587,41.606,32.587,41.606,0,0,0,0,0,0,32,-106,9.7911,8.0157,0,0,0,117608,57501,240.96,0.76308,NaN,347.07,NaN,0.098078,11318359,6060.5,15.757,0.72588,0.82547,0.59715,0.0074777,0.12125,NaN,NaN,NaN,NaN,NaN,NaN,NaN,NaN,0.0040305,20.32,324.29,90,0,4.589,6.9967,874.14,335.54,0.01,0.047639
0.77,12.607,33.003,41.585,33.003,41.585,0,0,0,0,0,0,32,-106,9.7911,7.9238,0,0,0,117576,57469,240.92,0.76295,NaN,347.07,NaN,0.099308,1.146e7,6056.7,16.12,0.72591,0.82374,0.59714,0.0074857,0.12128,NaN,NaN,NaN,NaN,NaN,NaN,NaN,NaN,0.0040819,20.32,324.29,90,0,4.5936,6.9946,874.11,335.54,0.01,0.047971
0.78,12.939,33.419,41.556,33.419,41.556,0,0,0,0,0,0,32,-106,9.7911,7.8342,0,0,0,117544,57437,240.89,0.76283,NaN,347.07,NaN,0.10054,11601356,6052.1,16.487,0.72593,0.82205,0.59712,0.0074938,0.12131,NaN,NaN,NaN,NaN,NaN,NaN,NaN,NaN,0.0041333,20.32,324.29,90,0,4.5981,6.9924,874.07,335.54,0.01,0.048292
0.79,13.275,33.834,41.529,33.834,41.529,0,0,0,0,0,0,32,-106,9.7911,7.7468,0,0,0,117513,57406,240.85,0.7627,NaN,347.07,NaN,0.10176,11742739,6047.7,16.858,0.72596,0.82041,0.59711,0.007502,0.12135,NaN,NaN,NaN,NaN,NaN,NaN,NaN,NaN,0.0041846,20.32,324.29,90,0,4.6027,6.9902,874.04,335.53,0.01,0.048608
0.805,13.787,34.456,41.5,34.456,41.502,-3.4974e-5,0,3.4974e-5,-180,0.0046757,0.31463,32,-106,9.7911,7.636,0,7.5561e-5,-9.0621e-9,117465,57358,240.8,0.7625,368.31,347.06,1.0459,0.10361,11955141,6042.4,17.43,0.726,0.81835,0.59709,0.0075145,0.1214,1.7127,1.7909,-3.0488e-4,0,0,0,0,6.4338e-6,0.0042616,20.32,324.29,90,-0.0059762,4.6243,6.9869,873.98,335.53,0.015,0.049011
0.8275,14.573,35.389,41.46,35.389,41.462,-2.2076e-4,0,2.2076e-4,-180,0.01188,0.32562,32,-106,9.7911,7.5464,0,1.9387e-4,-5.1426e-9,117394,57287,240.73,0.76222,368.62,347.06,1.0612,0.10639,12275426,6034.9,18.34,0.72606,0.81672,0.59705,0.0075338,0.12147,1.6854,1.7887,-2.2279e-5,0,0,0,0,4.0166e-5,0.004377,20.32,324.29,89.999,-0.0031117,4.7009,6.9818,873.9,335.53,0.0225,0.049348
0.86125,15.791,36.786,41.409,36.786,41.411,-8.101e-4,0,8.101e-4,-180,0.023066,0.32952,32,-106,9.7911,7.2431,0,3.8303e-4,-6.0009e-9,117287,57180,240.61,0.76178,369.68,347.05,1.1135,0.11052,1.275e7,6024.8,19.651,0.72615,0.81109,0.597,0.0075634,0.12159,1.5939,1.7745,1.7565e-5,0,0,0,0,1.453e-4,0.0045497,20.32,324.29,89.995,-0.0010622,4.7015,6.9739,873.77,335.53,0.03375,0.051746
0.91125,17.682,38.852,41.351,38.853,41.352,-0.0023629,-7.8345e-9,0.0023629,-180,0.03883,0.30382,32,-106,9.791,6.423,0,6.8241e-4,-5.205e-8,117129,57022,240.44,0.76114,372.7,347.04,1.2629,0.11653,13441397,6011.6,21.439,0.72629,0.7961,0.59692,0.0076086,0.12177,1.3563,1.7122,-4.408e-4,0,0,0,0,4.1487e-4,0.0048053,20.32,324.29,89.986,2.3258e-4,4.4224,6.9616,873.57,335.52,0.05,0.05343
0.96125,19.676,40.916,41.289,40.916,41.29,-0.0046798,-2.1457e-8,0.0046798,-180,0.053749,0.2921,32,-106,9.791,5.9636,0,0.0010043,-6.7308e-8,116972,56865,240.27,0.76051,374.52,347.03,1.3529,0.12262,14141020,5998.4,23.493,0.72644,0.78808,0.59683,0.0076569,0.12195,1.2295,1.6621,5.7929e-5,0,0,0,0,8.1152e-4,0.0050605,20.32,324.29,89.971,0.0010265,4.3492,6.9486,873.36,335.51,0.05,0.053864
1.0113,21.773,42.977,41.246,42.977,41.247,-0.0077262,-4.3985e-8,0.0077262,-180,0.067917,0.26953,32,-106,9.791,5.479,0,0.0013491,-4.5075e-8,116815,56708,240.1,0.75987,376.54,347.02,1.4528,0.1287,14838726,5987.5,25.604,0.7266,0.77993,0.59674,0.0077076,0.12215,1.1007,1.5981,5.9048e-5,0,0,0,0,0.0013296,0.0053154,20.32,324.29,89.949,0.001556,4.2286,6.935,873.13,335.5,0.05,0.054222
1.0613,23.974,45.037,41.23,45.037,41.231,-0.011439,-7.6531e-8,0.011439,-180,0.080293,0.23226,32,-106,9.791,4.9281,0,0.0017057,6.8658e-8,116658,56551,239.93,0.75924,378.98,347.01,1.5732,0.13476,15534245,5979.7,27.747,0.72676,0.77111,0.59664,0.0077607,0.12236,0.96044,1.5092,2.7541e-4,0,0,0,0,0.0019386,0.0055702,20.32,324.29,89.922,9.9804e-4,4.0253,6.9207,872.9,335.49,0.05,0.054649
1.1113,26.277,47.097,41.216,47.097,41.216,-0.015744,-1.2092e-7,0.015744,-180,0.091845,0.22624,32,-106,9.791,4.8808,0,0.0020895,-1.0397e-7,116501,56394,239.76,0.7586,379.2,347,1.5845,0.14092,16241314,5972.6,30.313,0.72694,0.77055,0.59654,0.0078173,0.12258,0.94872,1.5002,-4.1407e-4,0,0,0,0,0.0026603,0.005825,20.32,324.29,89.888,9.8234e-4,4.2065,6.9057,872.66,335.48,0.05,0.055063
1.1613,28.683,49.156,41.207,49.156,41.208,-0.020609,-1.7812e-7,0.020609,-180,0.10254,0.1985,32,-106,9.791,4.6579,0,0.0024998,-5.0493e-8,116345,56238,239.59,0.75797,380.24,346.99,1.6362,0.14704,16943546,5966.2,32.855,0.72712,0.76728,0.59644,0.0078763,0.12281,0.89407,1.4589,4.2772e-4,0,0,0,0,0.0034974,0.0060797,20.32,324.29,89.847,0.0011055,4.2401,6.8901,872.4,335.47,0.05,0.055498
1.2113,31.193,51.215,41.207,51.215,41.207,-0.025967,-2.4794e-7,0.025967,-180,0.11148,0.16303,32,-106,9.791,4.4432,0,0.0029303,2.0314e-8,116188,56081,239.42,0.75733,381.27,346.98,1.6872,0.15317,17645556,5960.8,35.499,0.72731,0.76424,0.59633,0.0079378,0.12305,0.84247,1.4173,3.0449e-4,0,0,0,0,0.0044292,0.0063344,20.32,324.29,89.798,9.0824e-4,4.2731,6.8737,872.13,335.46,0.05,0.056068
1.2613,33.805,53.274,41.211,53.275,41.211,-0.031739,-3.3117e-7,0.031739,-180,0.11932,0.15211,32,-106,9.791,4.552,0,0.0033959,-8.3127e-8,116032,55925,239.25,0.7567,380.75,346.97,1.6623,0.15937,18355655,5956.2,38.512,0.72751,0.76608,0.59621,0.0080028,0.1233,0.86855,1.4384,3.8387e-4,0,0,0,0,0.0054946,0.0065891,20.32,324.29,89.741,7.0847e-4,4.6034,6.8568,871.85,335.45,0.05,0.056573
1.3113,36.52,55.334,41.218,55.334,41.219,-0.037896,-4.2981e-7,0.037896,-180,0.12684,0.13955,32,-106,9.791,4.6876,0,0.003913,-1.6624e-8,115876,55769,239.08,0.75607,380.12,346.96,1.6316,0.16559,19066967,5952.3,41.686,0.72772,0.76837,0.59609,0.0080707,0.12356,0.90142,1.4639,4.0633e-4,0,0,0,0,0.0067586,0.0068438,20.32,324.29,89.675,6.2293e-4,4.9803,6.8391,871.57,335.44,0.05,0.058554
1.3613,39.338,57.395,41.232,57.395,41.232,-0.044388,-5.4285e-7,0.044388,-180,0.13232,0.080595,32,-106,9.791,4.4866,0,0.0044605,-2.182e-7,115720,55613,238.92,0.75544,381.08,346.95,1.6793,0.17173,19768740,5948.8,44.654,0.72794,0.76554,0.59597,0.0081405,0.12383,0.85293,1.424,3.7833e-4,0,0,0,0,0.0081657,0.0070987,20.32,324.29,89.6,8.1309e-4,5.0395,6.8208,871.27,335.43,0.05,0.06263
1.4113,42.26,59.456,41.248,59.456,41.248,-0.051083,-6.6689e-7,0.051083,-180,0.13507,0.029195,32,-106,9.791,4.4294,0,0.0050403,-1.8003e-7,115564,55457,238.75,0.7548,381.36,346.95,1.6937,0.17791,20474788,5945.9,47.871,0.72816,0.76493,0.59584,0.0082135,0.12411,0.83932,1.412,-2.2762e-4,0,0,0,0,0.0097153,0.0073536,20.32,324.29,89.514,0.0010014,5.248,6.8018,870.96,335.42,0.05,0.0659
1.4613,45.284,61.518,41.266,61.519,41.266,-0.057853,-7.9538e-7,0.057853,-180,0.13512,0.042372,32,-106,9.791,4.295,0,0.00566,-8.9794e-8,115408,55301,238.58,0.75417,382.02,346.94,1.7267,0.18408,21178582,5943.2,51.112,0.7284,0.76319,0.5957,0.008289,0.12441,0.80756,1.3828,2.0664e-4,0,0,0,0,0.011445,0.0076087,20.32,324.29,89.418,0.0011056,5.3843,6.7822,870.63,335.41,0.05,0.069803
1.5113,48.411,63.582,41.288,63.582,41.288,-0.064495,-9.2055e-7,0.064495,-180,0.12947,0.17457,32,-106,9.791,3.8141,0,0.0062755,-2.1416e-7,115252,55145,238.41,0.75354,384.46,346.93,1.8472,0.19016,21871703,5940.8,54.06,0.72863,0.75671,0.59557,0.0083662,0.1247,0.69708,1.2748,-1.7329e-4,0,0,0,0,0.013185,0.0078639,20.32,324.29,89.311,0.0012418,5.1371,6.7618,870.3,335.4,0.05,0.073268
1.5613,51.642,65.651,41.408,65.651,41.409,-0.070714,-1.0324e-6,0.070714,-180,0.11845,0.27544,32,-106,9.7909,3.6606,0,0.0069108,-4.3639e-7,115096,54989,238.24,0.75291,385.28,346.92,1.8878,0.19635,22576596,5950.1,57.477,0.72888,0.75493,0.59542,0.0084476,0.12501,0.66291,1.2366,-1.3763e-4,0,0,0,0,0.014999,0.0081198,20.32,324.29,89.192,0.0013714,5.2493,6.7408,869.96,335.38,0.05,0.076147
1.6113,54.977,67.726,41.513,67.726,41.516,-0.076228,-1.1174e-6,0.076228,-180,0.10092,0.42172,32,-106,9.7909,3.288,0,0.0075391,-2.1031e-7,114940,54833,238.07,0.75228,387.31,346.91,1.9883,0.20249,23276293,5957.7,60.75,0.72914,0.75052,0.59528,0.0085313,0.12533,0.58202,1.14,8.1719e-5,0,0,0,0,0.016784,0.0083764,20.32,324.29,89.062,0.0014902,5.1053,6.7192,869.6,335.37,0.05,0.079373
1.6613,58.415,69.801,41.527,69.801,41.531,-0.080694,-1.1588e-6,0.080694,-180,0.076563,0.56022,32,-106,9.7909,3.0488,0,0.0081717,-3.0001e-7,114783,54676,237.9,0.75164,388.67,346.9,2.0557,0.20868,2.398e7,5954.9,64.275,0.7294,0.74799,0.59513,0.0086183,0.12566,0.5317,1.0744,1.1558e-4,0,0,0,0,0.018569,0.0086331,20.32,324.29,88.921,0.0016192,5.1147,6.6968,869.24,335.36,0.05,0.083194
1.7113,61.957,71.878,41.543,71.878,41.549,-0.083749,-1.1361e-6,0.083749,-180,0.0442,0.73275,32,-106,9.7909,2.678,0,0.0087814,-7.5221e-7,114627,54520,237.73,0.75101,390.85,346.89,2.1638,0.21484,2.468e7,5952.5,67.756,0.72968,0.74426,0.59497,0.0087078,0.126,0.45615,0.96643,-1.2528e-4,0,0,0,0,0.020233,0.0088899,20.32,324.29,88.768,0.0017728,4.9569,6.6738,868.86,335.34,0.05,0.08755
1.7613,65.603,73.955,41.558,73.955,41.567,-0.084977,-1.024e-6,0.084977,-180,0.0036047,0.88603,32,-106,9.7909,2.5081,0,0.0093751,-3.3488e-7,114471,54364,237.57,0.75038,391.9,346.88,2.2156,0.22106,25385012,5950.2,71.566,0.72996,0.74285,0.59481,0.0088011,0.12635,0.42254,0.91409,-4.6745e-4,0,0,0,0,0.021784,0.0091468,20.32,324.29,88.604,0.0018469,5.0498,6.6501,868.47,335.33,0.05,0.090243
1.8113,69.352,76.032,41.572,76.032,41.585,-0.083998,-7.9766e-7,0.083998,-180,0.043997,1.0358,32,-106,9.7909,2.4275,0,0.0099988,-4.3895e-7,114315,54208,237.4,0.74975,392.41,346.87,2.2411,0.2273,26093245,5948.2,75.584,0.73025,0.74238,0.59464,0.0088978,0.12672,0.40683,0.88882,-2.0403e-4,0,0,0,0,0.023438,0.0094038,20.32,324.29,88.43,0.0017853,5.2694,6.6257,868.07,335.31,0.05,0.095034
1.8613,73.206,78.111,41.588,78.111,41.607,-0.080405,-4.3689e-7,0.080405,-180,0.10163,1.2634,32,-106,9.7909,1.9686,0,0.010566,-4.7782e-7,114159,54052,237.23,0.74911,395.36,346.86,2.3871,0.23345,2.679e7,5946.3,79.295,0.73055,0.73869,0.59447,0.008996,0.12708,0.32001,0.73859,4.3704e-4,0,0,0,0,0.024817,0.0096609,20.32,324.29,88.245,0.0016807,4.9816,6.6007,867.66,335.3,0.05,0.09859
1.9113,77.163,80.19,41.601,80.191,41.627,-0.073664,7.6056e-8,0.073664,180,0.16972,1.466,32,-106,9.7909,1.7256,0,0.011097,-8.1072e-7,114003,53896,237.06,0.74848,397.01,346.85,2.4686,0.23966,27492429,5944.5,83.36,0.73086,0.73718,0.59429,0.0090982,0.12747,0.27592,0.65509,3.0809e-4,0,0,0,0,0.025972,0.0099181,20.32,324.29,88.05,0.001615,4.9817,6.5749,867.24,335.28,0.05,0.1024
1.9613,81.225,82.27,41.614,82.271,41.648,-0.06325,7.6423e-7,0.06325,180,0.24873,1.6947,32,-106,9.7909,1.3984,0,0.011565,-5.7944e-7,113847,53740,236.89,0.74785,399.31,346.84,2.5826,0.24586,28192422,5942.9,87.468,0.73118,0.73538,0.59412,0.0092031,0.12786,0.21857,0.53802,3.1292e-4,0,0,0,0,0.026809,0.010175,20.32,324.29,87.846,0.0016285,4.8586,6.5485,866.81,335.27,0.05,0.1064
2.0113,85.39,84.351,41.624,84.352,41.669,-0.048601,1.6598e-6,0.048601,180,0.33916,1.9252,32,-106,9.7908,1.1192,0,0.011971,-6.5497e-7,113691,53584,236.72,0.74722,401.37,346.83,2.6842,0.25207,28893549,5941.3,91.753,0.7315,0.73423,0.59393,0.0093114,0.12826,0.17151,0.43312,5.6853e-5,0,0,0,0,0.027329,0.010433,20.32,324.29,87.634,0.0016312,4.798,6.5215,866.37,335.25,0.05,0.1098
2.0613,89.66,86.432,41.633,86.433,41.689,-0.029136,2.7944e-6,0.029136,179.99,0.4414,2.1589,32,-106,9.7908,0.87073,0,0.012297,-9.7658e-7,113535,53428,236.55,0.74659,403.27,346.82,2.7783,0.2583,29595202,5939.8,96.194,0.73184,0.73351,0.59374,0.009423,0.12867,0.13106,0.3367,1.4814e-4,0,0,0,0,0.027467,0.01069,20.32,324.29,87.415,0.0016097,4.777,6.4937,865.91,335.23,0.05,0.11274
2.1113,94.034,88.514,41.64,88.515,41.707,-0.0042836,4.203e-6,0.0042836,179.94,0.55448,2.3725,32,-106,9.7908,0.77014,0,0.0126,-1.3726e-6,113379,53272,236.38,0.74596,404.07,346.81,2.818,0.26456,30301175,5938.3,100.86,0.73218,0.73349,0.59354,0.0095386,0.1291,0.11507,0.29644,3.7346e-4,0,0,0,0,0.02749,0.010948,20.32,324.29,87.191,0.0016205,4.9815,6.4653,865.45,335.22,0.05,0.11653
2.1613,98.511,90.595,41.644,90.598,41.727,0.02651,5.9259e-6,0.02651,0.012807,0.6794,2.626,32,-106,9.7908,0.49426,0,0.012829,-2.0007e-6,113224,53117,236.22,0.74533,406.29,346.8,2.9281,0.27079,31000966,5936.8,105.55,0.73253,0.73308,0.59335,0.0096566,0.12953,0.072354,0.18508,2.202e-4,0,0,0,0,0.027208,0.011205,20.32,324.29,86.962,0.0016699,4.912,6.4362,864.97,335.2,0.05,0.12028
2.2113,103.09,92.677,41.646,92.681,41.746,0.06387,8.0084e-6,0.06387,0.0071841,0.81714,2.8834,32,-106,9.7908,0.22813,0,0.012956,-4.0911e-6,113068,52961,236.05,0.7447,408.53,346.79,3.0387,0.27702,3.17e7,5935.4,110.39,0.7329,0.73301,0.59314,0.0097779,0.12998,0.032729,0.072762,4.6812e-4,0,0,0,0,0.026518,0.011463,20.32,324.29,86.73,0.0016681,4.8477,6.4064,864.48,335.18,0.05,0.12326
2.2613,107.78,94.759,41.645,94.764,41.763,0.10844,1.0494e-5,0.10844,0.005545,0.96762,3.1362,32,-106,9.7908,0.0051937,0,0.012982,-1.6779e-4,112912,52805,235.88,0.74406,410.48,346.78,3.1352,0.28326,32400553,5934,115.39,0.73327,0.73327,0.59293,0.0099028,0.13043,7.3243e-4,-0.012888,-1.7699e-4,0,0,0,0,0.014796,0.011721,20.32,324.29,86.497,0.0016542,4.8422,6.3759,863.99,335.16,0.05,0.12526
2.3113,112.57,96.841,41.643,96.848,41.78,0.16084,1.3428e-5,0.16084,0.0047833,1.1307,3.3877,32,-106,9.7908,0.19488,0,-0.012909,-4.4719e-6,112756,52649,235.71,0.74343,408.84,346.77,3.0549,0.28951,33100657,5932.7,120.54,0.73365,0.73373,0.59272,0.010031,0.1309,0.027892,0.10932,-1.8485e-4,0,0,0,0,-0.024107,0.011979,20.32,324.29,86.263,0.0016626,4.8629,6.3448,863.48,335.14,0.05,0.12744
2.3612,117.46,98.923,41.638,98.932,41.796,0.22172,1.6862e-5,0.22172,0.0043574,1.3062,3.631,32,-106,9.7908,0.34507,0,-0.012745,-2.9206e-6,112601,52494,235.54,0.7428,407.58,346.75,2.9933,0.29577,33801685,5931.3,125.84,0.73403,0.7343,0.5925,0.010163,0.13137,0.049965,0.17219,4.3507e-4,0,0,0,0,-0.022515,0.012236,20.32,324.29,86.032,0.0016747,4.9564,6.313,862.96,335.12,0.05,0.12968
2.4112,122.46,101,41.632,101.02,41.812,0.29166,2.085e-5,0.29166,0.0040959,1.4936,3.8711,32,-106,9.7907,0.48017,0,-0.012516,-2.2081e-6,112445,52338,235.37,0.74217,406.47,346.74,2.9392,0.30205,34502402,5930,131.27,0.73443,0.73495,0.59227,0.010299,0.13186,0.070251,0.22687,2.2936e-4,0,0,0,0,-0.020824,0.012494,20.32,324.29,85.805,0.0016381,5.0644,6.2805,862.42,335.1,0.05,0.13227
2.4612,127.56,103.09,41.621,103.1,41.826,0.3713,2.5438e-5,0.3713,0.0039253,1.694,4.1443,32,-106,9.7907,0.74904,0,-0.01216,-6.1705e-7,112290,52183,235.21,0.74154,404.32,346.73,2.8337,0.30827,35196729,5928.6,136.86,0.73484,0.73609,0.59205,0.010437,0.13235,0.11182,0.33604,-1.7084e-4,0,0,0,0,-0.018874,0.012752,20.32,324.29,85.583,0.0015801,4.9147,6.2473,861.88,335.08,0.05,0.13481
2.5112,132.77,105.17,41.608,105.18,41.84,0.46129,3.067e-5,0.46129,0.0038094,1.908,4.3997,32,-106,9.7907,0.94862,0,-0.011649,-2.9702e-7,112134,52027,235.04,0.74091,402.78,346.72,2.7585,0.31452,35892343,5927.3,142.59,0.73525,0.73724,0.59182,0.010579,0.13286,0.14371,0.41307,1.3396e-4,0,0,0,0,-0.016641,0.01301,20.32,324.29,85.368,0.0015936,4.8613,6.2135,861.33,335.06,0.05,0.13664
2.5612,138.08,107.25,41.601,107.27,41.852,0.56226,3.6603e-5,0.56226,0.00373,2.1323,4.5768,32,-106,9.7907,0.88726,0,-0.01112,-5.5881e-7,111979,51872,234.87,0.74028,403.26,346.71,2.7829,0.32086,36597663,5926,148.34,0.73568,0.73743,0.59157,0.010727,0.13338,0.13383,0.38651,-3.766e-4,0,0,0,0,-0.014572,0.013268,20.32,324.29,85.163,0.0015966,5.2723,6.179,860.76,335.04,0.05,0.13902
2.6112,143.49,109.33,41.59,109.35,41.863,0.67468,4.3299e-5,0.67468,0.0036771,2.366,4.7782,32,-106,9.7907,0.94171,0,-0.010566,-2.6413e-7,111823,51716,234.7,0.73965,402.86,346.7,2.7634,0.32716,37297173,5924.7,154.25,0.73612,0.73808,0.59133,0.010877,0.13391,0.14262,0.40701,-4.8023e-4,0,0,0,0,-0.012657,0.013526,20.32,324.29,84.968,0.0016075,5.4519,6.1438,860.19,335.02,0.05,0.14207
2.6612,149.01,111.4,41.573,111.43,41.874,0.79904,5.0817e-5,0.79904,0.0036438,2.6107,5.0107,32,-106,9.7907,1.1201,0,-0.0099195,-2.0994e-7,111668,51561,234.53,0.73903,401.52,346.69,2.6981,0.3334,37989446,5923.4,160.36,0.73656,0.73932,0.59108,0.01103,0.13445,0.17187,0.47398,-2.2629e-4,0,0,0,0,-0.010742,0.013784,20.32,324.29,84.784,0.0016048,5.3675,6.1079,859.6,335,0.05,0.1443
2.7112,154.63,113.48,41.553,113.52,41.884,0.93594,5.9215e-5,0.93594,0.003625,2.8672,5.255,32,-106,9.7906,1.3495,0,-0.0091353,-5.046e-7,111512,51405,234.37,0.7384,399.85,346.68,2.6163,0.33962,38677380,5922,166.65,0.73701,0.74097,0.59083,0.011186,0.13499,0.2105,0.55987,9.5942e-5,0,0,0,0,-0.0087816,0.014042,20.32,324.29,84.612,0.0015963,5.1448,6.0714,859,334.98,0.05,0.14678
2.7612,160.36,115.56,41.532,115.6,41.893,1.086,6.855e-5,1.086,0.0036167,3.1362,5.4865,32,-106,9.7906,1.5601,0,-0.0081689,2.8957e-8,111357,51250,234.2,0.73777,398.36,346.67,2.5437,0.34583,39364020,5920.7,173.09,0.73747,0.74272,0.59058,0.011346,0.13555,0.24698,0.63487,-4.9237e-4,0,0,0,0,-0.0067728,0.0143,20.32,324.29,84.456,0.0015779,4.9115,6.0342,858.39,334.96,0.05,0.14896
2.8112,166.19,117.63,41.523,117.68,41.9,1.2497,7.8884e-5,1.2497,0.0036166,3.4138,5.6069,32,-106,9.7906,1.4995,0,-0.0071449,-1.8157e-7,111202,51095,234.03,0.73714,398.8,346.66,2.5659,0.35216,40061905,5919.4,179.37,0.73795,0.74281,0.59032,0.011512,0.13612,0.23642,0.61117,1.3197e-4,0,0,0,0,-0.0049974,0.014558,20.32,324.29,84.318,0.0015963,5.1886,5.9963,857.77,334.93,0.05,0.15235
2.8612,172.12,119.71,41.518,119.77,41.904,1.4274,9.0276e-5,1.4274,0.0036236,3.6958,5.6752,32,-106,9.7906,1.3494,0,-0.0061599,8.5057e-8,111046,50939,233.86,0.73651,399.89,346.65,2.62,0.35852,40763391,5918.1,185.68,0.73844,0.7424,0.59005,0.011684,0.13671,0.21055,0.55547,1.9969e-4,0,0,0,0,-0.0035843,0.014816,20.32,324.29,84.198,0.0015716,5.6256,5.9577,857.14,334.91,0.05,0.1547
2.9112,178.16,121.79,41.511,121.85,41.908,1.6193,1.0278e-4,1.6193,0.0036365,3.9813,5.7523,32,-106,9.7906,1.2692,0,-0.0052234,3.3015e-7,110891,50784,233.69,0.73588,400.49,346.64,2.65,0.36486,4.146e7,5916.8,192.16,0.73894,0.74246,0.58977,0.011858,0.13731,0.19693,0.52465,4.9121e-4,0,0,0,0,-0.002489,0.015074,20.32,324.29,84.096,0.0015218,5.8924,5.9184,856.5,334.89,0.05,0.15751
2.9612,184.3,123.86,41.497,123.93,41.911,1.8256,1.1643e-4,1.8256,0.003654,4.2719,5.879,32,-106,9.7905,1.3541,0,-0.0042435,-2.1035e-7,110736,50629,233.53,0.73525,399.89,346.63,2.6209,0.3711,42144984,5915.4,198.91,0.73943,0.74343,0.5895,0.012034,0.1379,0.2114,0.55566,-3.1201e-4,0,0,0,0,-0.0015881,0.015332,20.32,324.29,84.011,0.00145,5.7701,5.8785,855.85,334.86,0.05,0.16237
3.0112,190.55,125.94,41.48,126.02,41.914,2.0467,1.3126e-4,2.0467,0.0036747,4.5695,6.0161,32,-106,9.7905,1.4954,0,-0.0031381,2.961e-7,110581,50474,233.36,0.73462,398.89,346.62,2.5724,0.3773,42824102,5914.1,205.83,0.73994,0.74479,0.58922,0.012214,0.13851,0.23581,0.60745,3.5576e-4,0,0,0,0,-8.4032e-4,0.01559,20.32,324.29,83.944,0.0013871,5.4752,5.8379,855.18,334.84,0.05,0.16609
3.0612,196.9,128.01,41.469,128.1,41.914,2.2827,1.4731e-4,2.2827,0.0036975,4.8726,6.088,32,-106,9.7905,1.5206,0,-0.0019281,-6.3788e-8,110426,50319,233.19,0.73399,398.73,346.61,2.5649,0.38355,43507528,5912.8,212.73,0.74046,0.74547,0.58893,0.012398,0.13912,0.24024,0.61618,-4.6765e-4,0,0,0,0,-3.07e-4,0.015848,20.32,324.29,83.898,0.0012899,5.3835,5.7967,854.51,334.81,0.05,0.16869
3.1112,203.35,130.08,41.47,130.18,41.912,2.5339,1.6459e-4,2.5339,0.0037217,5.1763,6.0702,32,-106,9.7905,1.3899,0,-7.5455e-4,3.4118e-7,110271,50164,233.02,0.73337,399.68,346.6,2.6121,0.38988,44198298,5911.4,219.55,0.74099,0.74521,0.58864,0.012589,0.13976,0.21762,0.56824,1.4272e-4,0,0,0,0,-4.5511e-5,0.016106,20.32,324.29,83.874,0.0012442,5.6005,5.7547,853.82,334.79,0.05,0.17206
3.1612,209.9,132.15,41.465,132.27,41.908,2.8003,1.8316e-4,2.8003,0.0037474,5.4801,6.0775,32,-106,9.7905,1.3607,0,4.1964e-4,6.8925e-7,110115,50008,232.85,0.73274,399.9,346.59,2.6237,0.39614,4.488e7,5910.1,226.59,0.74153,0.74558,0.58835,0.012783,0.1404,0.21264,0.55813,-2.8621e-4,0,0,0,0,1.3637e-5,0.016365,20.32,324.29,83.871,0.001278,5.5427,5.7121,853.12,334.76,0.05,0.17526
3.2112,216.56,134.23,41.465,134.35,41.903,3.0819,2.0305e-4,3.0819,0.0037748,5.7834,6.0455,32,-106,9.7905,1.29,0,0.001596,-3.1525e-7,109960,49853,232.69,0.73211,400.43,346.58,2.6503,0.40242,45562613,5908.8,233.68,0.74208,0.74573,0.58805,0.012981,0.14105,0.20062,0.53185,1.1192e-4,0,0,0,0,1.9119e-4,0.016623,20.32,324.29,83.89,0.0013257,5.5361,5.6688,852.41,334.73,0.05,0.1797
3.2612,223.33,136.3,41.468,136.44,41.897,3.3786,2.2434e-4,3.3786,0.0038044,6.0837,5.9742,32,-106,9.7904,1.18,0,0.002706,7.6538e-7,109805,49698,232.52,0.73148,401.26,346.57,2.6915,0.40871,46245194,5907.4,240.83,0.74264,0.74572,0.58774,0.013185,0.14172,0.1821,0.4896,2.7543e-4,0,0,0,0,5.3289e-4,0.016881,20.32,324.29,83.928,0.0014195,5.5818,5.6249,851.69,334.71,0.05,0.18463
3.3112,230.19,138.37,41.468,138.52,41.889,3.6903,2.4711e-4,3.6903,0.0038366,6.3816,5.9214,32,-106,9.7904,1.1487,0,0.0038395,7.2839e-7,109650,49543,232.35,0.73085,401.51,346.56,2.7043,0.41494,4.692e7,5906.1,248.16,0.74321,0.74613,0.58744,0.013391,0.14238,0.1769,0.47713,1.6504e-4,0,0,0,0,0.001041,0.017139,20.32,324.29,83.987,0.0015374,5.3931,5.5802,850.96,334.68,0.05,0.18788
3.3612,237.16,140.45,41.479,140.61,41.878,4.0167,2.7143e-4,4.0167,0.0038718,6.6737,5.7724,32,-106,9.7904,0.96335,0,0.0048496,1.5232e-6,109495,49389,232.18,0.73023,402.92,346.54,2.7745,0.42126,47602845,5904.7,255.46,0.7438,0.74586,0.58712,0.013605,0.14307,0.1464,0.40457,4.0477e-4,0,0,0,0,0.0016116,0.017398,20.32,324.29,84.066,0.0016479,5.5429,5.5349,850.22,334.65,0.05,0.19086
3.4112,244.24,142.52,41.485,142.69,41.867,4.3575,2.9738e-4,4.3575,0.0039101,6.9595,5.6448,32,-106,9.7904,0.85816,0,0.0058025,8.3323e-7,109341,49234,232.02,0.7296,403.75,346.53,2.8159,0.42753,48277849,5903.4,262.94,0.74439,0.74603,0.5868,0.013821,0.14376,0.12944,0.36209,3.3604e-4,0,0,0,0,0.0022404,0.017656,20.32,324.29,84.162,0.0018015,5.4596,5.4889,849.47,334.63,0.05,0.19326
3.4612,251.42,144.6,41.496,144.78,41.853,4.7125,3.2505e-4,4.7125,0.003952,7.2365,5.4508,32,-106,9.7903,0.65551,0,0.006575,9.1869e-9,109186,49079,231.85,0.72897,405.37,346.52,2.8959,0.43385,48957993,5902,270.5,0.74499,0.74596,0.58648,0.014045,0.14447,0.097423,0.27895,4.5745e-4,0,0,0,0,0.002794,0.017915,20.32,324.29,84.273,0.0019981,5.5957,5.4423,848.71,334.6,0.05,0.19663
3.5112,258.7,146.67,41.502,146.86,41.839,5.081,3.5453e-4,5.081,0.0039978,7.5056,5.3025,32,-106,9.7903,0.57066,0,0.0072649,6.5987e-7,109031,48924,231.68,0.72835,406.07,346.51,2.931,0.44008,49627108,5900.7,278.22,0.7456,0.74634,0.58615,0.01427,0.14518,0.084292,0.24389,4.7317e-4,0,0,0,0,0.0033157,0.018173,20.32,324.29,84.398,0.0021879,5.4069,5.395,847.93,334.57,0.05,0.20127
3.5612,266.08,148.74,41.509,148.95,41.823,5.4629,3.8592e-4,5.4629,0.0040476,7.7658,5.1147,32,-106,9.7903,0.43344,0,0.0078156,8.6203e-7,108876,48769,231.51,0.72772,407.21,346.5,2.9878,0.44635,50298192,5899.3,286.05,0.74622,0.74665,0.58582,0.014501,0.1459,0.063377,0.18594,4.2233e-4,0,0,0,0,0.0037311,0.018432,20.32,324.29,84.534,0.0024195,5.3333,5.347,847.15,334.54,0.05,0.20446
3.6112,273.57,150.82,41.515,151.03,41.806,5.8575,4.193e-4,5.8575,0.0041014,8.0173,4.9271,32,-106,9.7903,0.31762,0,0.0082882,1.3008e-6,108721,48614,231.35,0.72709,408.2,346.49,3.0369,0.45259,50965608,5897.9,294,0.74685,0.74708,0.58548,0.014737,0.14663,0.046044,0.136,-3.8777e-4,0,0,0,0,0.0040816,0.01869,20.32,324.29,84.679,0.0027138,5.1862,5.2983,846.35,334.51,0.05,0.20727
3.6612,281.17,152.9,41.524,153.12,41.786,6.2644,4.5478e-4,6.2644,0.0041596,8.2567,4.6767,32,-106,9.7903,0.098725,0,0.008476,1.1354e-6,108567,48460,231.18,0.72647,410.1,346.48,3.1307,0.45891,5.164e7,5896.5,302.16,0.7475,0.74752,0.58514,0.014981,0.14738,0.014076,0.040232,3.2801e-4,0,0,0,0,0.0041527,0.018949,20.32,324.29,84.831,0.003051,5.3121,5.2489,845.54,334.48,0.05,0.20978
3.7112,288.86,154.97,41.522,155.2,41.769,6.683,4.9247e-4,6.683,0.0042222,8.4874,4.536,32,-106,9.7902,0.094844,0,0.0086329,5.7349e-7,108412,48305,231.01,0.72584,410.15,346.47,3.1339,0.46508,52297212,5895.2,310.31,0.74814,0.74816,0.5848,0.015225,0.14812,0.01352,0.038484,-4.5868e-4,0,0,0,0,0.0041952,0.019207,20.32,324.29,84.985,0.0032876,4.8541,5.1989,844.76,334.45,0.05,0.21381
3.7612,296.66,157.05,41.525,157.29,41.748,7.113,5.3246e-4,7.113,0.0042891,8.7085,4.303,32,-106,9.7902,0.073043,0,-0.0086331,-2.5868e-6,108257,48150,230.84,0.72521,410.36,346.46,3.1448,0.47136,52966479,5893.8,318.73,0.74881,0.74882,0.58445,0.015478,0.14888,0.010397,0.037027,9.0817e-5,0,0,0,0,-0.004085,0.019465,20.32,324.29,85.14,0.003546,4.847,5.1482,843.97,334.42,0.05,0.21707
3.8112,304.57,159.12,41.526,159.37,41.725,7.5537,5.748e-4,7.5537,0.00436,8.9173,4.068,32,-106,9.7902,0.23528,0,-0.0083817,-1.2569e-6,108103,47996,230.68,0.72459,408.98,346.45,3.0773,0.47764,53634190,5892.4,327.32,0.74949,0.74962,0.58409,0.015738,0.14966,0.033915,0.10788,5.6982e-5,0,0,0,0,-0.0037506,0.019723,20.32,324.29,85.294,0.0037705,4.8422,5.0968,843.17,334.39,0.05,0.22188
3.8612,312.58,161.2,41.521,161.46,41.703,8.0045,6.1955e-4,8.0045,0.0044347,9.1167,3.8962,32,-106,9.7902,0.29055,0,-0.0080414,-1.051e-6,107948,47841,230.51,0.72396,408.53,346.43,3.0557,0.48385,54292251,5891,335.9,0.75017,0.75036,0.58373,0.016,0.15043,0.042067,0.13193,3.0407e-4,0,0,0,0,-0.0033649,0.019982,20.32,324.29,85.442,0.003984,4.5585,5.0448,842.36,334.36,0.05,0.22524
3.9112,320.69,163.27,41.516,163.54,41.678,8.4651,6.6676e-4,8.4651,0.0045129,9.3056,3.6699,32,-106,9.7901,0.43925,0,-0.0075037,-1.6315e-6,107794,47687,230.34,0.72333,407.3,346.42,2.996,0.49013,54957079,5889.6,344.78,0.75087,0.75131,0.58337,0.016271,0.15123,0.064327,0.19513,4.117e-4,0,0,0,0,-0.0028558,0.02024,20.32,324.29,85.582,0.0043141,4.5712,4.992,841.54,334.32,0.05,0.22865
3.9612,328.9,165.35,41.508,165.62,41.653,8.9349,7.1651e-4,8.9349,0.0045946,9.4842,3.4702,32,-106,9.7901,0.55199,0,-0.0067995,-2.4511e-8,107639,47532,230.18,0.72271,406.4,346.41,2.9521,0.4964,55618364,5888.2,353.75,0.75158,0.75228,0.583,0.016547,0.15203,0.081537,0.24251,4.6887e-4,0,0,0,0,-0.0022866,0.020497,20.32,324.29,85.711,0.0047983,4.5215,4.9386,840.71,334.29,0.05,0.23121
4.0112,337.22,167.43,41.498,167.7,41.626,9.4134,7.6891e-4,9.4134,0.0046801,9.6523,3.2718,32,-106,9.7901,0.67431,0,-0.0058788,6.448e-8,107485,47378,230.01,0.72208,405.43,346.4,2.9051,0.50268,5.628e7,5886.8,362.92,0.7523,0.75334,0.58262,0.01683,0.15285,0.10053,0.29407,4.5291e-4,0,0,0,0,-0.0016671,0.020755,20.32,324.29,85.825,0.0052787,4.5531,4.8846,839.87,334.26,0.05,0.23502
4.0612,345.65,169.5,41.482,169.78,41.602,9.9,8.2408e-4,9.9,0.0047693,9.8129,3.1561,32,-106,9.7901,0.69584,0,-0.0048606,-2.6934e-6,107330,47223,229.84,0.72146,405.28,346.39,2.8983,0.50891,56933245,5885.4,371.97,0.75303,0.75414,0.58225,0.017117,0.15367,0.10393,0.30187,1.6623e-4,0,0,0,0,-0.0011122,0.021013,20.32,324.29,85.922,0.005879,4.3435,4.8298,839.02,334.23,0.05,0.23947
4.1112,354.17,171.57,41.464,171.86,41.575,10.395,8.8214e-4,10.395,0.0048624,9.968,3.0395,32,-106,9.79,0.74016,0,-0.0037919,-8.1496e-7,107176,47069,229.67,0.72083,404.95,346.38,2.8826,0.51516,57588091,5884,381.22,0.75378,0.75503,0.58187,0.017412,0.1545,0.11093,0.32079,-4.6701e-5,0,0,0,0,-6.6067e-4,0.02127,20.32,324.29,86,0.0064498,4.2602,4.7744,838.15,334.19,0.05,0.24224
4.1612,362.8,173.64,41.445,173.94,41.545,10.897,9.4322e-4,10.897,0.0049595,10.116,2.8753,32,-106,9.79,0.86777,0,-0.0025206,-2.7891e-6,107021,46914,229.51,0.72021,403.98,346.37,2.8351,0.52149,5.825e7,5882.6,390.87,0.75454,0.75625,0.58147,0.017718,0.15535,0.13129,0.37208,-3.2935e-4,0,0,0,0,-2.8494e-4,0.021527,20.32,324.29,86.057,0.0069562,4.5011,4.7183,837.28,334.16,0.05,0.24582
4.2112,371.54,175.72,41.421,176.02,41.517,11.406,0.0010075,11.406,0.0050607,10.257,2.8154,32,-106,9.79,0.88357,0,-0.0011113,-6.465e-7,106867,46760,229.34,0.71958,403.88,346.36,2.8307,0.52775,58902634,5881.2,400.33,0.75531,0.75709,0.58108,0.018026,0.15621,0.13386,0.3792,-3.6742e-4,0,0,0,0,-5.4094e-5,0.021784,20.32,324.29,86.089,0.0073764,4.4808,4.6615,836.4,334.12,0.05,0.2499
4.2612,380.37,177.79,41.392,178.09,41.491,11.922,0.0010749,11.922,0.0051658,10.399,2.8608,32,-106,9.79,0.79618,0,2.1689e-4,-1.8747e-6,106713,46606,229.17,0.71896,404.58,346.35,2.866,0.53395,59546548,5879.8,409.6,0.75609,0.75754,0.58069,0.018339,0.15706,0.11988,0.34329,-4.9494e-4,0,0,0,0,2.0133e-6,0.022041,20.32,324.29,86.097,0.0077494,4.213,4.6041,835.5,334.09,0.05,0.25334
4.3112,389.32,179.85,41.363,180.16,41.46,12.446,0.0011457,12.446,0.0052745,10.542,2.8368,32,-106,9.7899,0.82226,0,0.001566,-3.1185e-6,106559,46452,229.01,0.71833,404.4,346.33,2.8577,0.54025,6.02e7,5878.3,419.36,0.75689,0.75843,0.58028,0.018665,0.15794,0.12406,0.35461,3.7067e-4,0,0,0,0,1.0254e-4,0.022298,20.32,324.29,86.081,0.0080557,4.3751,4.546,834.6,334.05,0.05,0.25548
4.3612,398.36,181.92,41.33,182.24,41.429,12.977,0.00122,12.977,0.0053867,10.683,2.8541,32,-106,9.7899,0.8242,0,0.0030041,-3.316e-6,106404,46297,228.84,0.71771,404.41,346.32,2.8587,0.54655,60852255,5876.9,429.2,0.7577,0.75926,0.57987,0.018998,0.15883,0.12439,0.35494,4.3717e-4,0,0,0,0,3.6877e-4,0.022554,20.32,324.29,86.04,0.0083935,4.5432,4.4872,833.68,334.02,0.05,0.25862
4.4112,407.51,183.99,41.291,184.31,41.4,13.514,0.0012978,13.514,0.0055022,10.83,3.0039,32,-106,9.7899,0.69752,0,0.004304,-4.7799e-6,106250,46143,228.67,0.71708,405.44,346.31,2.9097,0.55277,61492803,5875.5,438.75,0.75852,0.75964,0.57946,0.019334,0.15972,0.10432,0.30247,1.1226e-4,0,0,0,0,7.4022e-4,0.02281,20.32,324.29,85.974,0.0088853,4.3715,4.4277,832.76,333.98,0.05,0.26108
4.4612,416.76,186.05,41.251,186.37,41.37,14.06,0.0013794,14.06,0.0056212,10.983,3.1351,32,-106,9.7898,0.61937,0,0.0055107,-3.7759e-6,106096,45989,228.51,0.71646,406.09,346.3,2.9423,0.55903,62137490,5874,448.6,0.75936,0.76024,0.57905,0.019681,0.16063,0.092118,0.26961,4.1732e-4,0,0,0,0,0.0011867,0.023066,20.32,324.29,85.885,0.0093216,4.424,4.3676,831.82,333.95,0.05,0.2635
4.5112,426.11,188.11,41.204,188.44,41.34,14.613,0.0014649,14.613,0.0057437,11.145,3.3389,32,-106,9.7898,0.48011,0,0.0065157,-3.4939e-6,105942,45835,228.34,0.71584,407.25,346.29,3,0.56526,62776126,5872.6,458.43,0.7602,0.76074,0.57863,0.020034,0.16154,0.070682,0.21058,-3.7245e-5,0,0,0,0,0.001623,0.023322,20.32,324.29,85.777,0.0097897,4.3304,4.3068,830.87,333.91,0.05,0.26794
4.5612,435.57,190.17,41.156,190.51,41.308,15.174,0.0015546,15.174,0.0058698,11.317,3.5446,32,-106,9.7898,0.35861,0,0.0073086,-8.1265e-6,105788,45681,228.17,0.71521,408.28,346.28,3.0516,0.57152,63415452,5871.1,468.48,0.76106,0.76136,0.5782,0.020397,0.16246,0.052324,0.1573,-4.2445e-5,0,0,0,0,0.001998,0.023578,20.32,324.29,85.652,0.010261,4.3389,4.2453,829.92,333.87,0.05,0.27191
4.6112,445.13,192.23,41.105,192.57,41.274,15.745,0.0016486,15.745,0.0059995,11.499,3.7359,32,-106,9.7898,0.26871,0,0.0078847,-8.8136e-6,105634,45527,228.01,0.71459,409.07,346.27,3.0908,0.5778,64056388,5869.7,478.75,0.76194,0.76211,0.57777,0.02077,0.1634,0.03895,0.11819,-2.4278e-5,0,0,0,0,0.0022756,0.023834,20.32,324.29,85.515,0.010573,4.4849,4.1832,828.95,333.83,0.05,0.27538
4.6612,454.79,194.28,41.054,194.63,41.237,16.324,0.0017473,16.324,0.0061328,11.689,3.8817,32,-106,9.7897,0.24239,0,0.0084454,-1.0064e-5,105480,45373,227.84,0.71396,409.32,346.25,3.1038,0.58414,64702077,5868.2,489.3,0.76285,0.76299,0.57733,0.021156,0.16436,0.03507,0.10605,4.5231e-4,0,0,0,0,0.0025549,0.024089,20.32,324.29,85.368,0.010708,4.88,4.1204,827.97,333.8,0.05,0.27823
4.7112,464.56,196.33,40.994,196.69,41.204,16.914,0.0018508,16.914,0.0062696,11.89,4.1602,32,-106,9.7897,0.07652,0,0.0087355,-3.5566e-5,105326,45219,227.67,0.71334,410.79,346.24,3.1764,0.59037,65332656,5866.8,499.69,0.76375,0.76376,0.5769,0.021544,0.16531,0.010934,0.032489,1.3163e-4,0,0,0,0,0.0026768,0.024344,20.32,324.29,85.213,0.010887,4.8141,4.0569,826.98,333.76,0.05,0.28237
4.7612,474.42,198.38,40.93,198.75,41.17,17.514,0.0019592,17.514,0.0064097,12.105,4.4371,32,-106,9.7897,0.080751,-6.1703e-9,-0.0087508,-2.7408e-5,105172,45065,227.51,0.71272,410.78,346.23,3.1765,0.5966,65961722,5865.3,510.29,0.76467,0.76468,0.57645,0.021942,0.16627,0.011545,0.039452,-5.966e-5,0,0,0,0,-0.002631,0.024599,20.32,324.29,85.055,0.011014,4.7765,3.9927,825.98,333.72,0.05,0.28662
4.8112,484.39,200.42,40.856,200.8,41.137,18.125,0.0020728,18.125,0.0065527,12.336,4.7928,32,-106,9.7896,0.31571,0,-0.0082912,-7.8928e-6,105018,44911,227.34,0.71209,408.79,346.22,3.0792,0.60274,6.658e7,5863.8,520.99,0.76559,0.76582,0.57601,0.022344,0.16723,0.045963,0.14406,8.0594e-6,0,0,0,0,-0.0023145,0.024854,20.32,324.29,84.901,0.010976,4.4331,3.9279,824.97,333.68,0.05,0.28941
4.8612,494.47,202.46,40.77,202.85,41.087,18.747,0.0021917,18.747,0.0066982,12.583,5.0955,32,-106,9.7896,0.49333,0,-0.0073765,-5.8054e-6,104864,44757,227.17,0.71147,407.34,346.21,3.0085,0.60892,67199329,5860.9,531.95,0.76653,0.76709,0.57557,0.022758,0.1682,0.072803,0.22051,-1.9185e-4,0,0,0,0,-0.0017955,0.025108,20.32,324.29,84.759,0.010704,4.2285,3.8625,823.95,333.64,0.05,0.29168
4.9112,504.64,204.5,40.705,204.9,41.047,19.383,0.0023158,19.383,0.0068456,12.843,5.2853,32,-106,9.7896,0.5668,0,-0.0061872,-4.1337e-6,104711,44604,227.01,0.71085,406.77,346.2,2.9811,0.61516,67824233,5859.4,543.05,0.76749,0.76824,0.57511,0.023187,0.1692,0.084123,0.25154,-3.5868e-4,0,0,0,0,-0.0012379,0.025362,20.32,324.29,84.637,0.010483,4.3147,3.7963,822.92,333.6,0.05,0.29366
4.9612,514.92,206.53,40.65,206.95,41.003,20.032,0.0024454,20.032,0.0069943,13.11,5.3716,32,-106,9.7895,0.55813,0,-0.0049018,-1.4858e-6,104557,44450,226.84,0.71023,406.87,346.18,2.9867,0.62145,68452626,5858,554.21,0.76848,0.76921,0.57464,0.023631,0.17021,0.082801,0.24817,-6.5228e-5,0,0,0,0,-7.6156e-4,0.025615,20.32,324.29,84.537,0.010407,4.6135,3.7295,821.88,333.56,0.05,0.29558
5.0112,525.29,208.56,40.597,208.99,40.958,20.694,0.0025803,20.694,0.007144,13.379,5.4245,32,-106,9.7895,0.53757,0,-0.003697,3.9753e-8,104403,44296,226.67,0.7096,407.07,346.17,2.9971,0.62774,69077731,5856.5,565.45,0.76949,0.77016,0.57417,0.024085,0.17123,0.079646,0.23884,7.9434e-5,0,0,0,0,-4.2466e-4,0.025869,20.32,324.29,84.46,0.010398,4.8783,3.6621,820.83,333.52,0.05,0.29781
5.0612,535.77,210.59,40.532,211.03,40.917,21.37,0.0027206,21.37,0.0072944,13.655,5.596,32,-106,9.7895,0.64438,0,-0.0022692,1.0415e-6,104250,44143,226.51,0.70898,406.24,346.16,2.9567,0.63387,69684207,5855.1,576.76,0.77048,0.77146,0.57371,0.02454,0.17223,0.096251,0.28509,-2.2198e-4,0,0,0,0,-1.5695e-4,0.026122,20.32,324.29,84.406,0.010411,4.581,3.594,819.77,333.48,0.05,0.2998
5.1112,546.35,212.62,40.478,213.07,40.87,22.06,0.0028665,22.06,0.0074452,13.937,5.6484,32,-106,9.7895,0.66177,0,-6.9641e-4,9.6507e-7,104096,43989,226.34,0.70836,406.13,346.15,2.952,0.64005,70294571,5853.6,588.12,0.77151,0.77253,0.57324,0.025011,0.17326,0.098997,0.2922,1.2658e-4,0,0,0,0,-1.4502e-5,0.026375,20.32,324.29,84.379,0.010513,4.5109,3.5252,818.7,333.44,0.05,0.30178
5.1612,557.03,214.64,40.435,215.11,40.819,22.764,0.003018,22.764,0.0075962,14.218,5.5822,32,-106,9.7894,0.59749,0,8.3365e-4,-2.3562e-6,103943,43836,226.17,0.70774,406.68,346.14,2.9797,0.64628,70908151,5852.2,599.51,0.77256,0.7734,0.57276,0.025498,0.1743,0.088977,0.26474,-9.7916e-5,0,0,0,0,2.0387e-5,0.026627,20.32,324.29,84.381,0.010538,4.644,3.4558,817.62,333.39,0.05,0.3034
5.2112,567.82,216.66,40.4,217.14,40.764,23.481,0.003175,23.481,0.0077473,14.494,5.433,32,-106,9.7894,0.48364,0,0.0022132,9.9032e-7,103789,43682,226.01,0.70712,407.65,346.12,3.0277,0.65254,71522009,5850.7,610.97,0.77363,0.77418,0.57228,0.026001,0.17535,0.071432,0.21607,-2.2111e-4,0,0,0,0,1.4099e-4,0.02688,20.32,324.29,84.408,0.010428,4.8737,3.3857,816.53,333.35,0.05,0.30558
5.2612,578.7,218.68,40.371,219.18,40.705,24.213,0.0033376,24.213,0.007898,14.759,5.197,32,-106,9.7894,0.31332,0,0.0031735,1.5482e-6,103636,43529,225.84,0.70649,409.1,346.11,3.0998,0.65883,72137956,5849.2,622.6,0.77473,0.77496,0.57178,0.02652,0.17643,0.045699,0.14121,4.4653e-4,0,0,0,0,2.8444e-4,0.027132,20.32,324.29,84.458,0.010354,5.2575,3.3149,815.43,333.31,0.05,0.30802
5.3112,589.69,220.7,40.331,221.21,40.649,24.957,0.0035057,24.957,0.0080482,15.016,5.0731,32,-106,9.7893,0.25478,0,0.0039509,-4.531e-7,103482,43375,225.68,0.70587,409.63,346.1,3.1266,0.66498,72736918,5847.7,634.25,0.77583,0.77598,0.5713,0.027043,0.17749,0.037005,0.1154,-1.4831e-4,0,0,0,0,4.3285e-4,0.027383,20.32,324.29,84.522,0.010248,5.1591,3.2435,814.32,333.26,0.05,0.30983
5.3612,600.77,222.71,40.296,223.23,40.59,25.714,0.003679,25.714,0.0081975,15.265,4.878,32,-106,9.7893,0.14542,0,0.0044887,-1.3827e-6,103329,43222,225.51,0.70525,410.61,346.09,3.1752,0.67118,73338060,5846.2,646.08,0.77695,0.777,0.5708,0.027583,0.17856,0.020951,0.065614,3.6791e-5,0,0,0,0,5.4859e-4,0.027635,20.32,324.29,84.599,0.01001,5.2249,3.1715,813.19,333.22,0.05,0.31181
