Time (s),Altitude (m),Vertical velocity (m/s),Vertical acceleration (m/s),Total velocity (m/s),Total acceleration (m/s),Position East of launch (m),Position North of launch (m),Lateral distance (m),Lateral direction (),Lateral velocity (m/s),Lateral acceleration (m/s),Latitude (),Longitude (),Gravitational acceleration (m/s),Angle of attack (),Roll rate (r/s),Pitch rate (r/s),Yaw rate (r/s),Mass (g),Propellant mass (g),Longitudinal moment of inertia (kgm),Rotational moment of inertia (kgm),CP location (in),CG location (in),Stability margin calibers (),Mach number (),Reynolds number (),Thrust (N),Drag force (N),Drag coefficient (),Axial drag coefficient (),Friction drag coefficient (),Pressure drag coefficient (),Base drag coefficient (),Normal force coefficient (),Pitch moment coefficient (),Yaw moment coefficient (),Side force coefficient (),Roll moment coefficient (),Roll forcing coefficient (),Roll damping coefficient (),Pitch damping coefficient (),Coriolis acceleration (m/s),Reference length (in),Reference area (cm),Vertical orientation (zenith) (),Lateral orientation (azimuth) (),Wind velocity (m/s),Air temperature (C),Air pressure (mbar),Speed of sound (m/s),Simulation time step (s),Computation time (s)
0,0,0,7.2634,0,7.2812,0,0,0,0,0,0.50791,28.61,-80.6,9.7882,86,0,0,0,120910,59934,355.65,0.66121,NaN,128.1,NaN,0.03066,4072268,2061,0.0010766,0.80162,6.576e-4,0.6719,0.0095993,0.12012,NaN,NaN,NaN,NaN,NaN,NaN,NaN,NaN,0,7,248.29,86,0,NaN,28.93,999.66,348.83,0.01,0.0012275
0.01,3.6317e-4,0.072634,25.852,0.072812,25.915,2.5395e-5,0,2.5395e-5,0,0.0050791,1.8077,28.61,-80.6,9.7882,85.608,0,0,0,120910,59934,355.65,0.66121,NaN,128.1,NaN,0.0304,4037712,4314,0.0013956,0.80162,8.671e-4,0.6719,0.0095991,0.12012,NaN,NaN,NaN,NaN,NaN,NaN,NaN,NaN,9.3292e-6,7,248.29,86,0,NaN,28.93,999.66,348.83,0.01,0.0018293
0.02,0.0023822,0.33119,29.025,0.332,29.096,1.6658e-4,0,1.6658e-4,0,0.023159,2.0296,28.61,-80.6,9.7882,84.198,0,0,0,120894,59919,355.61,0.66116,NaN,128.12,NaN,0.030191,4009899,4698,0.0031242,0.80162,0.0019682,0.67191,0.0095989,0.12012,NaN,NaN,NaN,NaN,NaN,NaN,NaN,NaN,4.2538e-5,7,248.29,86,0,NaN,28.93,999.66,348.83,0.01,0.0023913
0.03,0.0071457,0.62152,32.204,0.62304,32.283,4.9968e-4,0,4.9968e-4,0,0.043461,2.2519,28.61,-80.6,9.7882,82.596,0,0,0,120863,59887,355.54,0.66104,NaN,128.15,NaN,0.030012,3986091,5082,0.0063018,0.80162,0.0040176,0.67191,0.0095988,0.12012,NaN,NaN,NaN,NaN,NaN,NaN,NaN,NaN,7.9828e-5,7,248.29,86,0,NaN,28.93,999.66,348.83,0.01,0.0026888
0.04,0.014971,0.94365,35.385,0.94596,35.472,0.0010469,0,0.0010469,0,0.065987,2.4744,28.61,-80.6,9.7882,80.804,0,0,0,120831,59855,355.46,0.66092,NaN,128.18,NaN,0.029871,3967355,5466,0.011725,0.80162,0.0075458,0.67191,0.0095987,0.12012,NaN,NaN,NaN,NaN,NaN,NaN,NaN,NaN,1.212e-4,7,248.29,86,0,NaN,28.93,999.66,348.83,0.01,0.0029228
0.05,0.026178,1.2976,38.568,1.3008,38.662,0.0018305,0,0.0018305,0,0.090738,2.697,28.61,-80.6,9.7882,78.824,0,0,0,120799,59824,355.39,0.66081,NaN,128.21,NaN,0.029777,3954872,5850,0.020447,0.80162,0.013242,0.67191,0.0095986,0.12012,NaN,NaN,NaN,NaN,NaN,NaN,NaN,NaN,1.6667e-4,7,248.29,86,0,NaN,28.93,999.66,348.83,0.01,0.0031363
0.06,0.041083,1.6834,41.753,1.6875,41.855,0.0028728,0,0.0028728,0,0.11771,2.9196,28.61,-80.6,9.7882,76.626,0,0,0,120768,59792,355.31,0.66069,NaN,128.24,NaN,0.029629,3935294,6234,0.033801,0.80162,0.022109,0.67191,0.0095985,0.12011,NaN,NaN,NaN,NaN,NaN,NaN,NaN,NaN,2.1622e-4,7,248.29,86,0,NaN,28.93,999.66,348.83,0.01,0.003307
0.07,0.060005,2.101,44.939,2.1062,45.049,0.0041959,0,0.0041959,0,0.14692,3.1424,28.61,-80.6,9.7882,74.239,0,0,0,120736,59760,355.24,0.66058,NaN,128.27,NaN,0.029551,3924841,6618,0.053463,0.80162,0.035157,0.67191,0.0095984,0.12011,NaN,NaN,NaN,NaN,NaN,NaN,NaN,NaN,2.6986e-4,7,248.29,86,0,NaN,28.93,999.66,348.83,0.01,0.0035753
0.08,0.083262,2.5505,46.683,2.5568,46.797,0.0058223,0,0.0058223,0,0.17835,3.2644,28.61,-80.6,9.7882,71.675,0,0,0,120705,59729,355.17,0.66046,NaN,128.3,NaN,0.029552,3925035,6827.3,0.0814,0.80162,0.053522,0.67191,0.0095984,0.12011,NaN,NaN,NaN,NaN,NaN,NaN,NaN,NaN,3.2759e-4,7,248.29,86,0,NaN,28.93,999.66,348.83,0.01,0.003939
0.09,0.1111,3.0175,46.987,3.0249,47.101,0.007769,0,0.007769,0,0.211,3.2856,28.61,-80.6,9.7882,69.026,0,0,0,120669,59693,355.08,0.66033,NaN,128.33,NaN,0.029631,3935462,6862,0.11859,0.80162,0.077564,0.67191,0.0095985,0.12011,NaN,NaN,NaN,NaN,NaN,NaN,NaN,NaN,3.8757e-4,7,248.29,86,0,NaN,28.93,999.66,348.83,0.01,0.0041268
0.1,0.14363,3.4875,47.292,3.496,47.408,0.010043,0,0.010043,0,0.24387,3.307,28.61,-80.6,9.7882,66.38,0,0,0,120628,59652,354.99,0.66018,NaN,128.37,NaN,0.029776,3954714,6896.8,0.1651,0.80162,0.10693,0.67191,0.0095986,0.12012,NaN,NaN,NaN,NaN,NaN,NaN,NaN,NaN,4.4794e-4,7,248.29,86,0,NaN,28.929,999.65,348.83,0.01,0.0043418
0.11,0.18087,3.9606,47.598,3.9703,47.715,0.012648,0,0.012648,0,0.27695,3.3284,28.61,-80.6,9.7882,64.152,0,0,0,120588,59612,354.89,0.66004,NaN,128.41,NaN,0.03051,4052248,6931.5,0.22031,0.80162,0.1359,0.6719,0.0095992,0.12012,NaN,NaN,NaN,NaN,NaN,NaN,NaN,NaN,5.087e-4,7,248.29,86,0,NaN,28.929,999.65,348.83,0.01,0.0045673
0.12,0.22285,4.4368,47.904,4.4476,48.021,0.015584,0,0.015584,0,0.31025,3.3498,28.61,-80.6,9.7882,62.018,0,0,0,120547,59572,354.8,0.65989,NaN,128.45,NaN,0.031292,4156164,6966.2,0.28526,0.80163,0.16728,0.6719,0.0095998,0.12013,NaN,NaN,NaN,NaN,NaN,NaN,NaN,NaN,5.6986e-4,7,248.29,86,0,NaN,28.929,999.65,348.83,0.01,0.0048223
0.13,0.26962,4.916,48.21,4.928,48.328,0.018854,0,0.018854,0,0.34376,3.3712,28.61,-80.6,9.7882,59.976,0,0,0,120507,59531,354.7,0.65974,NaN,128.49,NaN,0.03212,4266147,7000.9,0.36033,0.80163,0.20055,0.6719,0.0096005,0.12013,NaN,NaN,NaN,NaN,NaN,NaN,NaN,NaN,6.3141e-4,7,248.29,86,0,NaN,28.929,999.65,348.83,0.01,0.0049665
0.14,0.32119,5.3982,48.517,5.4114,48.635,0.02246,0,0.02246,0,0.37748,3.3926,28.61,-80.6,9.7882,58.027,0,0,0,120467,59491,354.61,0.65959,NaN,128.53,NaN,0.032992,4381889,7035.6,0.44582,0.80164,0.23519,0.67189,0.0096012,0.12014,NaN,NaN,NaN,NaN,NaN,NaN,NaN,NaN,6.9335e-4,7,248.29,86,0,NaN,28.929,999.65,348.83,0.01,0.0051135
0.15,0.3776,5.8835,48.823,5.8979,48.942,0.026404,0,0.026404,0,0.41142,3.414,28.61,-80.6,9.7882,56.167,0,0,0,120426,59450,354.52,0.65944,NaN,128.56,NaN,0.033905,4503089,7070.4,0.54197,0.80164,0.27074,0.67189,0.009602,0.12015,NaN,NaN,NaN,NaN,NaN,NaN,NaN,NaN,7.5568e-4,7,248.29,86,0,NaN,28.929,999.64,348.83,0.01,0.0052611
0.16,0.43887,6.3719,49.13,6.3875,49.249,0.030689,0,0.030689,0,0.44557,3.4355,28.61,-80.6,9.7882,54.341,0,0,0,120386,59410,354.42,0.6593,NaN,128.6,NaN,0.034802,4622310,7105.1,0.64939,0.80165,0.30788,0.67189,0.0096027,0.12016,NaN,NaN,NaN,NaN,NaN,NaN,NaN,NaN,8.1841e-4,7,248.29,86,0,NaN,28.928,999.64,348.83,0.01,0.0054393
0.17,0.50505,6.8634,49.436,6.8801,49.557,0.035317,0,0.035317,0,0.47993,3.4569,28.61,-80.6,9.7882,52.596,0,0,0,120345,59370,354.33,0.65915,NaN,128.64,NaN,0.035739,4746699,7139.8,0.76796,0.80165,0.34526,0.67188,0.0096036,0.12017,NaN,NaN,NaN,NaN,NaN,NaN,NaN,NaN,8.8154e-4,7,248.29,86,0,NaN,28.928,999.64,348.83,0.01,0.0055979
0.18,0.57616,7.3579,49.472,7.3759,49.592,0.040289,0,0.040289,0,0.51452,3.4594,28.61,-80.6,9.7882,50.932,0,0,0,120305,59329,354.24,0.659,NaN,128.68,NaN,0.036712,4875998,7141.8,0.89779,0.80166,0.38251,0.67188,0.0096045,0.12018,NaN,NaN,NaN,NaN,NaN,NaN,NaN,NaN,9.4505e-4,7,248.29,86,0,NaN,28.928,999.64,348.83,0.01,0.005884
0.19,0.65221,7.8528,49.235,7.872,49.356,0.045607,0,0.045607,0,0.54912,3.4429,28.61,-80.6,9.7882,49.353,0,0,0,120265,59289,354.15,0.65886,NaN,128.72,NaN,0.037716,5009284,7111.1,1.0382,0.80166,0.4191,0.67187,0.0096054,0.12018,NaN,NaN,NaN,NaN,NaN,NaN,NaN,NaN,0.0010086,7,248.29,86,0,NaN,28.928,999.63,348.83,0.01,0.0061593
0.2,0.7332,8.3453,48.998,8.3657,49.118,0.05127,0,0.05127,0,0.58356,3.4263,28.61,-80.6,9.7882,47.865,0,0,0,120226,59251,354.06,0.65871,NaN,128.75,NaN,0.038742,5145565,7080.4,1.1882,0.80167,0.45458,0.67187,0.0096064,0.1202,NaN,NaN,NaN,NaN,NaN,NaN,NaN,NaN,0.0010719,7,248.29,86,0,NaN,28.927,999.63,348.83,0.01,0.0063381
0.21,0.8191,8.8354,48.761,8.857,48.881,0.057277,0,0.057277,0,0.61783,3.4097,28.61,-80.6,9.7882,46.943,0,0,0,120187,59212,353.97,0.65857,NaN,128.79,NaN,0.040199,5339016,7049.7,1.3423,0.80168,0.47698,0.67186,0.0096079,0.12021,NaN,NaN,NaN,NaN,NaN,NaN,NaN,NaN,0.0011348,7,248.29,86,0,NaN,28.927,999.62,348.83,0.01,0.0065202
0.22,0.9099,9.3232,48.524,9.346,48.643,0.063626,0,0.063626,0,0.65194,3.3931,28.61,-80.6,9.7882,46.093,0,0,0,120149,59173,353.88,0.65843,NaN,128.83,NaN,0.041661,5533124,7019,1.5048,0.80168,0.4979,0.67185,0.0096094,0.12023,NaN,NaN,NaN,NaN,NaN,NaN,NaN,NaN,0.0011975,7,248.29,86,0,NaN,28.927,999.62,348.83,0.01,0.0067597
0.23,1.0056,9.8086,48.287,9.8325,48.405,0.070315,0,0.070315,0,0.68588,3.3765,28.61,-80.6,9.7882,45.306,0,0,0,120110,59134,353.79,0.65829,NaN,128.86,NaN,0.043126,5727731,6988.3,1.6757,0.80169,0.51741,0.67184,0.009611,0.12024,NaN,NaN,NaN,NaN,NaN,NaN,NaN,NaN,0.0012598,7,248.29,86,0,NaN,28.926,999.62,348.83,0.01,0.0069411
0.24,1.1061,10.292,48.049,10.317,48.166,0.077343,0,0.077343,0,0.71966,3.3599,28.61,-80.6,9.7882,44.578,0,0,0,120071,59095,353.7,0.65815,NaN,128.9,NaN,0.044594,5922697,6957.6,1.8548,0.8017,0.53561,0.67183,0.0096127,0.12026,NaN,NaN,NaN,NaN,NaN,NaN,NaN,NaN,0.0013219,7,248.29,86,0,NaN,28.926,999.61,348.83,0.01,0.0070961
0.25,1.2114,10.772,47.811,10.799,47.928,0.084708,0,0.084708,0,0.75327,3.3433,28.61,-80.6,9.7882,43.902,0,0,0,120032,59056,353.61,0.658,NaN,128.94,NaN,0.046064,6117904,6926.9,2.0419,0.80171,0.55259,0.67182,0.0096144,0.12028,NaN,NaN,NaN,NaN,NaN,NaN,NaN,NaN,0.0013836,7,248.29,86,0,NaN,28.926,999.61,348.83,0.01,0.0072503
0.26,1.3215,11.25,47.573,11.278,47.689,0.092408,0,0.092408,0,0.78671,3.3266,28.61,-80.6,9.7882,42.719,0,0,0,119993,59017,353.53,0.65786,NaN,128.97,NaN,0.047044,6248099,6896.3,2.2448,0.80172,0.58247,0.67182,0.0096155,0.12029,NaN,NaN,NaN,NaN,NaN,NaN,NaN,NaN,0.001445,7,248.29,86,0,NaN,28.925,999.6,348.83,0.01,0.0074333
0.27,1.4364,11.726,47.334,11.755,47.45,0.10044,0,0.10044,0,0.81999,3.3099,28.61,-80.6,9.7882,41.591,0,0,0,119954,58978,353.44,0.65772,NaN,129.01,NaN,0.048039,6380164,6865.6,2.4558,0.80173,0.61109,0.67181,0.0096167,0.1203,NaN,NaN,NaN,NaN,NaN,NaN,NaN,NaN,0.0015061,7,248.29,86,0,NaN,28.925,999.6,348.83,0.01,0.0076608
0.28,1.556,12.2,47.096,12.23,47.211,0.10881,0,0.10881,0,0.8531,3.2933,28.61,-80.6,9.7882,40.514,0,0,0,119915,58939,353.35,0.65758,NaN,129.05,NaN,0.049046,6513911,6834.9,2.6743,0.80174,0.63843,0.6718,0.009618,0.12031,NaN,NaN,NaN,NaN,NaN,NaN,NaN,NaN,0.001567,7,248.29,86,0,NaN,28.924,999.59,348.83,0.01,0.0079595
0.29,1.6804,12.671,46.857,12.702,46.971,0.1175,0,0.1175,0,0.88604,3.2765,28.61,-80.6,9.7882,39.485,0,0,0,119876,58900,353.26,0.65743,NaN,129.08,NaN,0.050065,6649161,6804.2,2.9002,0.80174,0.66448,0.6718,0.0096193,0.12033,NaN,NaN,NaN,NaN,NaN,NaN,NaN,NaN,0.0016275,7,248.29,86,0,NaN,28.924,999.59,348.83,0.01,0.0083596
0.3,1.8094,13.14,46.618,13.172,46.732,0.12653,0,0.12653,0,0.91882,3.2598,28.61,-80.6,9.7882,38.503,0,0,0,119837,58861,353.17,0.65729,NaN,129.12,NaN,0.051093,6785753,6773.5,3.1332,0.80175,0.68924,0.67179,0.0096206,0.12034,NaN,NaN,NaN,NaN,NaN,NaN,NaN,NaN,0.0016877,7,248.29,86,0,NaN,28.923,999.58,348.83,0.01,0.0086397
0.31,1.9431,13.606,46.378,13.639,46.492,0.13588,0,0.13588,0,0.95142,3.2431,28.61,-80.6,9.7882,37.592,0,0,0,119798,58822,353.09,0.65715,NaN,129.16,NaN,0.052153,6926484,6742.8,3.3725,0.80176,0.71204,0.67178,0.009622,0.12035,NaN,NaN,NaN,NaN,NaN,NaN,NaN,NaN,0.0017476,7,248.29,86,0,NaN,28.923,999.57,348.83,0.01,0.0089969
0.32,2.0815,14.07,46.139,14.104,46.252,0.14555,0,0.14555,0,0.98386,3.2263,28.61,-80.6,9.7882,36.721,0,0,0,119759,58783,353,0.65701,NaN,129.19,NaN,0.05322,7068163,6712.1,3.6183,0.80177,0.73362,0.67178,0.0096234,0.12037,NaN,NaN,NaN,NaN,NaN,NaN,NaN,NaN,0.0018071,7,248.29,86,0,NaN,28.922,999.57,348.83,0.01,0.0093324
0.33,2.2245,14.531,45.899,14.567,46.011,0.15555,0,0.15555,0,1.0161,3.2096,28.61,-80.6,9.7882,35.89,0,0,0,119720,58745,352.91,0.65686,NaN,129.23,NaN,0.054293,7210666,6681.4,3.8704,0.80178,0.75402,0.67177,0.0096249,0.12038,NaN,NaN,NaN,NaN,NaN,NaN,NaN,NaN,0.0018664,7,248.29,86,0,NaN,28.922,999.56,348.83,0.01,0.0095399
0.34,2.3721,14.991,45.659,15.027,45.771,0.16588,0,0.16588,0,1.0482,3.1928,28.61,-80.6,9.7882,35.095,0,0,0,119681,58706,352.83,0.65672,NaN,129.27,NaN,0.055372,7353878,6650.7,4.1284,0.80179,0.77326,0.67176,0.0096264,0.1204,NaN,NaN,NaN,NaN,NaN,NaN,NaN,NaN,0.0019254,7,248.29,86,0,NaN,28.921,999.55,348.83,0.01,0.0097987
0.35,2.5243,15.447,45.419,15.485,45.53,0.17652,0,0.17652,0,1.0802,3.176,28.61,-80.6,9.7882,34.334,0,0,0,119642,58667,352.74,0.65658,NaN,129.3,NaN,0.056455,7497693,6620,4.3922,0.80179,0.79141,0.67175,0.0096279,0.12041,NaN,NaN,NaN,NaN,NaN,NaN,NaN,NaN,0.0019841,7,248.29,86,0,NaN,28.921,999.55,348.82,0.01,0.010143
0.36,2.6811,15.902,45.179,15.94,45.289,0.18748,0,0.18748,0,1.112,3.1592,28.61,-80.6,9.7882,33.366,0,0,0,119604,58628,352.65,0.65644,NaN,129.34,NaN,0.057357,7617481,6589.3,4.6635,0.8018,0.81407,0.67175,0.0096293,0.12043,NaN,NaN,NaN,NaN,NaN,NaN,NaN,NaN,0.0020424,7,248.29,86,0,NaN,28.92,999.54,348.82,0.01,0.010339
0.37,2.8423,16.354,44.938,16.394,45.048,0.19876,0,0.19876,0,1.1436,3.1424,28.61,-80.6,9.7882,32.431,0,0,0,119565,58589,352.57,0.6563,NaN,129.38,NaN,0.05827,7738601,6558.6,4.9391,0.80181,0.83541,0.67174,0.0096306,0.12044,NaN,NaN,NaN,NaN,NaN,NaN,NaN,NaN,0.0021005,7,248.29,86,0,NaN,28.92,999.53,348.82,0.01,0.010509
0.38,3.0081,16.803,44.698,16.844,44.807,0.21035,0,0.21035,0,1.175,3.1256,28.61,-80.6,9.7882,31.529,0,0,0,119526,58550,352.48,0.65615,NaN,129.41,NaN,0.059191,7860930,6527.9,5.2188,0.80182,0.85545,0.67173,0.009632,0.12046,NaN,NaN,NaN,NaN,NaN,NaN,NaN,NaN,0.0021582,7,248.29,86,0,NaN,28.919,999.52,348.82,0.01,0.010727
0.39,3.1784,17.25,44.457,17.292,44.565,0.22226,0,0.22226,0,1.2063,3.1087,28.61,-80.6,9.7882,30.659,0,0,0,119487,58511,352.39,0.65601,NaN,129.45,NaN,0.060121,7984355,6497.2,5.502,0.80183,0.87421,0.67172,0.0096334,0.12047,NaN,NaN,NaN,NaN,NaN,NaN,NaN,NaN,0.0022156,7,248.29,86,0,NaN,28.919,999.52,348.82,0.01,0.010998
0.4,3.3531,17.695,44.216,17.738,44.324,0.23447,0,0.23447,0,1.2373,3.0919,28.61,-80.6,9.7882,29.818,0,0,0,119448,58472,352.31,0.65587,NaN,129.49,NaN,0.061058,8108767,6466.5,5.7885,0.80184,0.89173,0.67172,0.0096348,0.12048,NaN,NaN,NaN,NaN,NaN,NaN,NaN,NaN,0.0022727,7,248.29,86,0,NaN,28.918,999.51,348.82,0.01,0.01118
0.41,3.5323,18.137,43.974,18.181,44.082,0.247,0,0.247,0,1.2683,3.075,28.61,-80.6,9.7882,29.272,0,0,0,119409,58433,352.22,0.65573,NaN,129.52,NaN,0.06219,8259055,6435.8,6.0795,0.80185,0.90277,0.67171,0.0096366,0.1205,NaN,NaN,NaN,NaN,NaN,NaN,NaN,NaN,0.0023295,7,248.29,86,0,NaN,28.917,999.5,348.82,0.01,0.011338
0.42,3.7159,18.577,43.733,18.622,43.84,0.25984,0,0.25984,0,1.299,3.0581,28.61,-80.6,9.7882,28.748,0,0,0,119370,58394,352.14,0.65558,NaN,129.56,NaN,0.063321,8409256,6405.1,6.3746,0.80186,0.91308,0.6717,0.0096384,0.12052,NaN,NaN,NaN,NaN,NaN,NaN,NaN,NaN,0.002386,7,248.29,86,0,NaN,28.917,999.49,348.82,0.01,0.011528
0.43,3.9038,19.015,43.491,19.061,43.597,0.27298,0,0.27298,0,1.3296,3.0412,28.61,-80.6,9.7882,28.246,0,0,0,119331,58355,352.05,0.65544,NaN,129.6,NaN,0.064452,8559321,6374.4,6.6738,0.80187,0.92271,0.67169,0.0096403,0.12054,NaN,NaN,NaN,NaN,NaN,NaN,NaN,NaN,0.0024422,7,248.29,86,0,NaN,28.916,999.48,348.82,0.01,0.011855
0.44,4.0961,19.45,43.249,19.497,43.355,0.28643,0,0.28643,0,1.36,3.0243,28.61,-80.6,9.7882,27.764,0,0,0,119292,58316,351.97,0.6553,NaN,129.63,NaN,0.06558,8709201,6343.7,6.977,0.80188,0.93171,0.67168,0.0096422,0.12056,NaN,NaN,NaN,NaN,NaN,NaN,NaN,NaN,0.0024981,7,248.29,86,0,NaN,28.915,999.48,348.82,0.01,0.012174
0.45,4.2928,19.882,43.007,19.931,43.112,0.30018,0,0.30018,0,1.3903,3.0074,28.61,-80.6,9.7882,27.301,0,0,0,119253,58277,351.88,0.65516,NaN,129.67,NaN,0.066708,8858855,6313,7.2839,0.80189,0.9401,0.67167,0.0096441,0.12058,NaN,NaN,NaN,NaN,NaN,NaN,NaN,NaN,0.0025537,7,248.29,86,0,NaN,28.915,999.47,348.82,0.01,0.012483
0.46,4.4938,20.312,42.884,20.362,42.989,0.31423,0,0.31423,0,1.4204,2.9988,28.61,-80.6,9.7882,26.751,0,0,0,119214,58239,351.8,0.65502,NaN,129.7,NaN,0.067759,8998356,6296.6,7.5923,0.8019,0.94975,0.67166,0.0096459,0.1206,NaN,NaN,NaN,NaN,NaN,NaN,NaN,NaN,0.0026089,7,248.29,86,0,NaN,28.914,999.46,348.82,0.01,0.012819
0.47,4.699,20.741,42.879,20.792,42.984,0.32859,0,0.32859,0,1.4504,2.9984,28.61,-80.6,9.7882,26.219,0,0,0,119178,58202,351.72,0.65488,NaN,129.74,NaN,0.068812,9138235,6294.4,7.9042,0.80191,0.95873,0.67165,0.0096477,0.12062,NaN,NaN,NaN,NaN,NaN,NaN,NaN,NaN,0.002664,7,248.29,86,0,NaN,28.913,999.45,348.82,0.01,0.013116
0.48,4.9086,21.17,42.874,21.222,42.978,0.34324,0,0.34324,0,1.4804,2.998,28.61,-80.6,9.7882,25.703,0,0,0,119144,58168,351.64,0.65476,NaN,129.77,NaN,0.069872,9278858,6292.2,8.2205,0.80192,0.9671,0.67164,0.0096496,0.12063,NaN,NaN,NaN,NaN,NaN,NaN,NaN,NaN,0.0027191,7,248.29,86,0,NaN,28.912,999.44,348.82,0.01,0.013365
0.49,5.1224,21.599,42.868,21.652,42.972,0.3582,0,0.3582,0,1.5104,2.9976,28.61,-80.6,9.7882,25.202,0,0,0,119110,58134,351.57,0.65463,NaN,129.8,NaN,0.070936,9420188,6290,8.541,0.80193,0.97488,0.67163,0.0096515,0.12065,NaN,NaN,NaN,NaN,NaN,NaN,NaN,NaN,0.0027742,7,248.29,86,0,NaN,28.912,999.43,348.82,0.01,0.013611
0.5,5.3406,22.028,42.862,22.082,42.966,0.37345,0,0.37345,0,1.5403,2.9972,28.61,-80.6,9.7882,24.717,0,0,0,119075,58100,351.49,0.65451,NaN,129.83,NaN,0.072006,9562192,6287.9,8.8656,0.80195,0.9821,0.67162,0.0096535,0.12067,NaN,NaN,NaN,NaN,NaN,NaN,NaN,NaN,0.0028293,7,248.29,86,0,NaN,28.911,999.42,348.82,0.01,0.013941
0.51,5.563,22.457,42.856,22.511,42.96,0.389,0,0.389,0,1.5703,2.9968,28.61,-80.6,9.7882,24.353,0,0,0,119041,58066,351.42,0.65438,NaN,129.87,NaN,0.073155,9714631,6285.7,9.1989,0.80196,0.98729,0.67161,0.0096556,0.1207,NaN,NaN,NaN,NaN,NaN,NaN,NaN,NaN,0.0028843,7,248.29,86,0,NaN,28.91,999.41,348.82,0.01,0.014273
0.52,5.7897,22.885,42.85,22.941,42.954,0.40486,0,0.40486,0,1.6003,2.9963,28.61,-80.6,9.7882,24,0,0,0,119007,58031,351.35,0.65426,NaN,129.9,NaN,0.074306,9867427,6283.5,9.5372,0.80197,0.99214,0.6716,0.0096578,0.12072,NaN,NaN,NaN,NaN,NaN,NaN,NaN,NaN,0.0029394,7,248.29,86,0,NaN,28.909,999.4,348.82,0.01,0.01447
0.53,6.0207,23.314,42.844,23.371,42.948,0.42101,0,0.42101,0,1.6303,2.9959,28.61,-80.6,9.7882,23.658,0,0,0,118973,57997,351.27,0.65413,NaN,129.93,NaN,0.075459,10020561,6281.3,9.8804,0.80198,0.99666,0.67158,0.00966,0.12074,NaN,NaN,NaN,NaN,NaN,NaN,NaN,NaN,0.0029944,7,248.29,86,0,NaN,28.908,999.39,348.82,0.01,0.014667
0.54,6.256,23.742,42.837,23.8,42.942,0.43746,0,0.43746,0,1.6602,2.9955,28.61,-80.6,9.7882,23.326,0,0,0,118939,57963,351.2,0.65401,NaN,129.96,NaN,0.076616,10174017,6279.1,10.228,0.802,1.0009,0.67157,0.0096622,0.12076,NaN,NaN,NaN,NaN,NaN,NaN,NaN,NaN,0.0030495,7,248.29,86,0,NaN,28.908,999.38,348.82,0.01,0.014867
0.55,6.4955,24.171,42.831,24.23,42.936,0.45421,0,0.45421,0,1.6902,2.9951,28.61,-80.6,9.7882,23.005,0,0,0,118905,57929,351.13,0.65388,NaN,129.99,NaN,0.077774,10327779,6276.9,10.581,0.80201,1.0048,0.67156,0.0096645,0.12079,NaN,NaN,NaN,NaN,NaN,NaN,NaN,NaN,0.0031045,7,248.29,86,0,NaN,28.907,999.37,348.82,0.01,0.015065
0.56,6.7394,24.599,42.825,24.659,42.93,0.47126,0,0.47126,0,1.7202,2.9946,28.61,-80.6,9.7882,22.816,0,0,0,118871,57895,351.05,0.65376,NaN,130.02,NaN,0.07902,10493201,6274.8,10.947,0.80203,1.007,0.67155,0.009667,0.12081,NaN,NaN,NaN,NaN,NaN,NaN,NaN,NaN,0.0031596,7,248.29,86,0,NaN,28.906,999.36,348.82,0.01,0.015284
0.57,6.9875,25.028,42.819,25.089,42.923,0.48862,0,0.48862,0,1.7501,2.9942,28.61,-80.6,9.7882,22.633,0,0,0,118837,57861,350.98,0.65363,NaN,130.06,NaN,0.080267,10658709,6272.6,11.319,0.80204,1.0091,0.67153,0.0096695,0.12084,NaN,NaN,NaN,NaN,NaN,NaN,NaN,NaN,0.0032146,7,248.29,86,0,NaN,28.905,999.34,348.82,0.01,0.015513
0.58,7.24,25.456,42.812,25.518,42.917,0.50627,0,0.50627,0,1.7801,2.9937,28.61,-80.6,9.7882,22.456,0,0,0,118803,57827,350.91,0.65351,NaN,130.09,NaN,0.081515,10824296,6270.4,11.696,0.80206,1.0111,0.67152,0.0096721,0.12086,NaN,NaN,NaN,NaN,NaN,NaN,NaN,NaN,0.0032696,7,248.29,86,0,NaN,28.904,999.33,348.81,0.01,0.015764
0.59,7.4967,25.884,42.806,25.947,42.91,0.52422,0,0.52422,0,1.81,2.9933,28.61,-80.6,9.7882,22.284,0,0,0,118768,57793,350.84,0.65339,NaN,130.12,NaN,0.082763,1.099e7,6268.2,12.08,0.80207,1.013,0.67151,0.0096747,0.12089,NaN,NaN,NaN,NaN,NaN,NaN,NaN,NaN,0.0033246,7,248.29,86,0,NaN,28.903,999.32,348.81,0.01,0.015982
0.6,7.7576,26.312,42.799,26.377,42.904,0.54247,0,0.54247,0,1.8399,2.9928,28.61,-80.6,9.7882,22.117,0,0,0,118734,57759,350.76,0.65326,NaN,130.15,NaN,0.084012,11155690,6266,12.469,0.80209,1.0148,0.67149,0.0096774,0.12092,NaN,NaN,NaN,NaN,NaN,NaN,NaN,NaN,0.0033796,7,248.29,86,0,NaN,28.902,999.31,348.81,0.01,0.016179
0.61,8.0229,26.741,42.793,26.806,42.897,0.56102,0,0.56102,0,1.8699,2.9924,28.61,-80.6,9.7882,21.818,0,0,0,118700,57724,350.69,0.65314,NaN,130.18,NaN,0.085163,11308383,6263.8,12.851,0.8021,1.0178,0.67148,0.0096799,0.12094,NaN,NaN,NaN,NaN,NaN,NaN,NaN,NaN,0.0034346,7,248.29,86,0,NaN,28.901,999.3,348.81,0.01,0.016375
0.62,8.2924,27.169,42.786,27.235,42.891,0.57986,0,0.57986,0,1.8998,2.9919,28.61,-80.6,9.7882,21.528,0,0,0,118666,57690,350.62,0.65301,NaN,130.21,NaN,0.086315,11461349,6261.7,13.237,0.80212,1.0206,0.67147,0.0096824,0.12097,NaN,NaN,NaN,NaN,NaN,NaN,NaN,NaN,0.0034895,7,248.29,86,0,NaN,28.9,999.29,348.81,0.01,0.016573
0.63,8.5663,27.597,42.78,27.664,42.884,0.59901,0,0.59901,0,1.9297,2.9914,28.61,-80.6,9.7882,21.245,0,0,0,118632,57656,350.55,0.65289,NaN,130.25,NaN,0.08747,11614575,6259.5,13.628,0.80213,1.0232,0.67145,0.009685,0.12099,NaN,NaN,NaN,NaN,NaN,NaN,NaN,NaN,0.0035445,7,248.29,86,0,NaN,28.899,999.27,348.81,0.01,0.01677
0.64,8.8444,28.024,42.773,28.093,42.878,0.61846,0,0.61846,0,1.9597,2.991,28.61,-80.6,9.7882,20.97,0,0,0,118598,57622,350.47,0.65276,NaN,130.28,NaN,0.088626,11768051,6257.3,14.023,0.80215,1.0256,0.67144,0.0096876,0.12102,NaN,NaN,NaN,NaN,NaN,NaN,NaN,NaN,0.0035995,7,248.29,86,0,NaN,28.898,999.26,348.81,0.01,0.016968
0.65,9.1268,28.452,42.766,28.522,42.871,0.63821,0,0.63821,0,1.9896,2.9905,28.61,-80.6,9.7882,20.701,0,0,0,118564,57588,350.4,0.65264,NaN,130.31,NaN,0.089785,11921764,6255.1,14.423,0.80216,1.0278,0.67142,0.0096902,0.12105,NaN,NaN,NaN,NaN,NaN,NaN,NaN,NaN,0.0036544,7,248.29,86,0,NaN,28.897,999.25,348.81,0.01,0.017164
0.66,9.4134,28.88,42.76,28.951,42.864,0.65825,0,0.65825,0,2.0195,2.9901,28.61,-80.6,9.7882,20.497,0,0,0,118530,57554,350.33,0.65251,NaN,130.34,NaN,0.090986,12081168,6252.9,14.834,0.80218,1.0294,0.67141,0.009693,0.12108,NaN,NaN,NaN,NaN,NaN,NaN,NaN,NaN,0.0037094,7,248.29,86,0,NaN,28.896,999.23,348.81,0.01,0.017376
0.67,9.7044,29.308,42.753,29.379,42.857,0.6786,0,0.6786,0,2.0494,2.9896,28.61,-80.6,9.7882,20.298,0,0,0,118496,57520,350.26,0.65239,NaN,130.37,NaN,0.092188,12240694,6250.7,15.25,0.8022,1.0308,0.6714,0.0096958,0.1211,NaN,NaN,NaN,NaN,NaN,NaN,NaN,NaN,0.0037643,7,248.29,86,0,NaN,28.895,999.22,348.81,0.01,0.017581
0.68,9.9996,29.735,42.746,29.808,42.851,0.69924,0,0.69924,0,2.0793,2.9891,28.61,-80.6,9.7882,20.104,0,0,0,118461,57486,350.19,0.65226,NaN,130.4,NaN,0.093392,1.24e7,6248.6,15.671,0.80221,1.0322,0.67138,0.0096987,0.12113,NaN,NaN,NaN,NaN,NaN,NaN,NaN,NaN,0.0038192,7,248.29,86,0,NaN,28.894,999.21,348.81,0.01,0.017762
0.69,10.299,30.163,42.739,30.237,42.844,0.72018,0,0.72018,0,2.1092,2.9886,28.61,-80.6,9.7882,19.915,0,0,0,118427,57451,350.12,0.65214,NaN,130.44,NaN,0.094596,1.256e7,6246.4,16.097,0.80223,1.0334,0.67137,0.0097016,0.12116,NaN,NaN,NaN,NaN,NaN,NaN,NaN,NaN,0.0038741,7,248.29,86,0,NaN,28.893,999.19,348.81,0.01,0.017944
0.7,10.603,30.59,42.732,30.665,42.837,0.74142,0,0.74142,0,2.1391,2.9881,28.61,-80.6,9.7881,19.731,0,0,0,118393,57417,350.04,0.65201,NaN,130.47,NaN,0.0958,1.272e7,6244.2,16.528,0.80225,1.0346,0.67135,0.0097045,0.12119,NaN,NaN,NaN,NaN,NaN,NaN,NaN,NaN,0.0039291,7,248.29,86,0,NaN,28.892,999.18,348.81,0.01,0.018126
0.71,10.911,31.018,42.726,31.094,42.83,0.76296,0,0.76296,0,2.169,2.9877,28.61,-80.6,9.7881,19.176,0,0,0,118359,57383,349.97,0.65189,NaN,130.5,NaN,0.096732,12843541,6242,16.899,0.80226,1.0376,0.67134,0.0097068,0.12122,NaN,NaN,NaN,NaN,NaN,NaN,NaN,NaN,0.003984,7,248.29,86,0,NaN,28.891,999.17,348.81,0.01,0.018308
0.72,11.223,31.445,42.72,31.522,42.824,0.7848,0,0.7848,0,2.1989,2.9872,28.61,-80.6,9.7881,18.632,0,0,0,118325,57349,349.9,0.65176,NaN,130.53,NaN,0.097673,12968290,6239.8,17.268,0.80227,1.0399,0.67133,0.0097092,0.12124,NaN,NaN,NaN,NaN,NaN,NaN,NaN,NaN,0.0040388,7,248.29,86,0,NaN,28.89,999.15,348.81,0.01,0.018491
0.73,11.54,31.873,42.713,31.95,42.818,0.80694,0,0.80694,0,2.2287,2.9868,28.61,-80.6,9.7881,18.099,0,0,0,118291,57315,349.83,0.65164,NaN,130.56,NaN,0.098622,13094159,6237.7,17.633,0.80229,1.0416,0.67131,0.0097116,0.12126,NaN,NaN,NaN,NaN,NaN,NaN,NaN,NaN,0.0040937,7,248.29,86,0,NaN,28.889,999.14,348.81,0.01,0.01868
0.74,11.861,32.3,42.707,32.379,42.811,0.82938,0,0.82938,0,2.2586,2.9864,28.61,-80.6,9.7881,17.576,0,0,0,118257,57281,349.76,0.65152,NaN,130.59,NaN,0.099579,13221115,6235.5,17.994,0.8023,1.0426,0.6713,0.009714,0.12129,NaN,NaN,NaN,NaN,NaN,NaN,NaN,NaN,0.0041486,7,248.29,86,0,NaN,28.888,999.12,348.8,0.01,0.018864
0.75,12.186,32.727,42.701,32.807,42.805,0.85211,0,0.85211,0,2.2885,2.9859,28.61,-80.6,9.7881,17.063,0,0,0,118223,57247,349.69,0.65139,NaN,130.62,NaN,0.10054,13349126,6233.3,18.352,0.80233,1.043,0.67129,0.0097329,0.12131,NaN,NaN,NaN,NaN,NaN,NaN,NaN,NaN,0.0042035,7,248.29,86,0,NaN,28.886,999.11,348.8,0.01,0.019047
0.76,12.515,33.154,42.704,33.235,42.798,0.87515,0,0.87515,0,2.3184,2.8271,28.61,-80.6,9.7881,16.988,0,0,0,118188,57213,349.62,0.65127,139.54,130.66,1.2693,0.10181,13516488,6230.6,18.817,0.80239,1.0431,0.67127,0.0097744,0.12135,5.4855,6.9627,-1.108e-4,0,0,0,0,0,0.0042583,7,248.29,86,0,NaN,28.885,999.09,348.8,0.015,0.019252
0.775,13.017,33.795,42.687,33.877,42.779,0.91024,1.8318e-8,0.91024,1.153e-6,2.3606,2.804,28.61,-80.6,9.7881,16.876,0,1.5426e-4,0,118146,57170,349.53,0.65111,139.58,130.7,1.269,0.1037,13767233,6226.5,19.523,0.80248,1.0432,0.67124,0.0098365,0.1214,5.4255,6.8848,-1.7345e-4,0,0,0,0,3.9134e-5,0.0043406,7,248.29,86,1.8379e-7,NaN,28.883,999.07,348.8,0.0225,0.019439
0.7975,13.788,34.756,42.66,34.84,42.75,0.96406,1.1545e-7,0.96406,6.8616e-6,2.4234,2.7703,28.61,-80.6,9.7881,16.712,0,3.9296e-4,-5.6195e-9,118082,57106,349.4,0.65088,139.63,130.75,1.2683,0.10653,14143240,6220.3,20.604,0.80261,1.0432,0.6712,0.0099299,0.12148,5.3386,6.7706,4.7365e-4,0,0,0,0,2.4061e-4,0.0044639,7,248.29,85.997,5.9526e-7,NaN,28.881,999.04,348.8,0.03375,0.019624
0.83125,14.986,36.196,42.615,36.283,42.708,1.0474,4.2201e-7,1.0474,2.3084e-5,2.5177,2.8207,28.61,-80.6,9.7881,15.531,0,7.5476e-4,0,117986,57010,349.2,0.65053,140.05,130.84,1.3147,0.11012,14618761,6211.2,21.915,0.80278,1.0385,0.67115,0.010048,0.12158,4.7294,6.2174,2.7423e-4,0,0,0,0,8.3079e-4,0.0046489,7,248.29,85.99,1.8295e-6,NaN,28.876,998.98,348.8,0.05,0.019848
0.88125,16.849,38.328,42.553,38.42,42.644,1.1769,1.2446e-6,1.1769,6.0593e-5,2.6595,2.7971,28.61,-80.6,9.7881,14.912,0,0.0012885,-5.1979e-9,117843,56867,348.91,0.65,140.28,130.97,1.3299,0.11618,15422672,6200.3,24.285,0.80306,1.034,0.67106,0.010249,0.12175,4.423,5.8805,1.1941e-4,0,0,0,0,0.0021754,0.0049227,7,248.29,85.972,3.7871e-6,NaN,28.87,998.9,348.79,0.05,0.020024
0.93125,18.819,40.459,42.517,40.555,42.606,1.3133,2.5276e-6,1.3133,1.1027e-4,2.798,2.753,28.61,-80.6,9.7881,14.614,0,0.0018687,8.3485e-9,117673,56697,348.57,0.64938,140.4,131.13,1.3249,0.12244,16253108,6189.4,26.906,0.80337,1.0315,0.67096,0.010458,0.12195,4.2792,5.6654,-3.8595e-4,0,0,0,0,0.0041195,0.0051962,7,248.29,85.944,5.0852e-6,NaN,28.863,998.81,348.79,0.05,0.020201
0.98125,20.895,42.587,42.481,42.688,42.566,1.4566,4.2931e-6,1.4566,1.6886e-4,2.9348,2.686,28.61,-80.6,9.7881,14.579,0,0.002487,0,117502,56526,348.23,0.64876,140.42,131.29,1.305,0.12889,17107712,6178.4,29.812,0.80368,1.0315,0.67085,0.010674,0.12216,4.2624,5.5559,-2.4111e-5,0,0,0,0,0.0065846,0.0054694,7,248.29,85.905,3.4702e-6,NaN,28.855,998.71,348.79,0.05,0.020378
1.0313,23.077,44.714,42.441,44.819,42.526,1.6067,6.5621e-6,1.6067,2.3401e-4,3.0683,2.6857,28.61,-80.6,9.7881,14.112,0,0.0031579,6.9505e-9,117331,56356,347.89,0.64813,140.62,131.44,1.3109,0.135,17917500,6167.5,32.549,0.80399,1.0267,0.67074,0.010879,0.12237,4.0409,5.2869,1.0272e-4,0,0,0,0,0.0096775,0.0057424,7,248.29,85.854,5.859e-6,NaN,28.848,998.62,348.78,0.05,0.020554
1.0813,25.366,46.838,42.399,46.948,42.489,1.7635,9.3559e-6,1.7635,3.0397e-4,3.2046,2.7601,28.61,-80.6,9.7881,13.242,0,0.0038384,1.1093e-8,117161,56185,347.55,0.64751,141.01,131.6,1.3444,0.14077,18682860,6156.6,35.002,0.80429,1.0154,0.67063,0.011074,0.12258,3.6427,4.8842,-4.0722e-4,0,0,0,0,0.013149,0.0060151,7,248.29,85.791,7.1747e-6,NaN,28.839,998.51,348.78,0.05,0.020732
1.1313,27.761,48.961,42.356,49.075,42.449,1.9272,1.2696e-5,1.9272,3.7744e-4,3.3442,2.796,28.61,-80.6,9.7881,12.772,0,0.0045275,5.5429e-8,116990,56014,347.22,0.64689,141.24,131.75,1.3548,0.14684,19486602,6145.7,37.825,0.8046,1.0086,0.67052,0.01128,0.1228,3.4353,4.6371,-2.465e-4,0,0,0,0,0.016814,0.0062876,7,248.29,85.716,4.5804e-6,NaN,28.831,998.4,348.77,0.05,0.020908
1.1813,30.262,51.081,42.312,51.2,42.409,2.098,1.6603e-5,2.098,4.5343e-4,3.4855,2.8705,28.61,-80.6,9.7881,12.164,0,0.0052433,7.0385e-8,116820,55844,346.89,0.64626,141.55,131.91,1.3772,0.15278,20273675,6134.8,40.549,0.80492,0.99888,0.6704,0.011483,0.12303,3.1752,4.3518,-1.1632e-4,0,0,0,0,0.020831,0.0065599,7,248.29,85.628,-2.9875e-6,NaN,28.822,998.29,348.77,0.05,0.021088
1.2313,32.869,53.199,42.266,53.323,42.369,2.2759,2.1097e-5,2.2759,5.3113e-4,3.6316,2.9501,28.61,-80.6,9.7881,11.641,0,0.0059639,1.2297e-7,116649,55673,346.57,0.64564,141.83,132.06,1.3959,0.15878,21067499,6123.9,43.396,0.80524,0.98993,0.67027,0.011689,0.12328,2.9589,4.1052,3.6438e-4,0,0,0,0,0.024955,0.0068319,7,248.29,85.527,-1.41e-5,NaN,28.813,998.17,348.76,0.05,0.021264
1.2813,35.582,55.315,42.217,55.444,42.332,2.4612,2.6199e-5,2.4612,6.0991e-4,3.7824,3.1106,28.61,-80.6,9.7881,10.746,0,0.0066952,1.1962e-7,116479,55503,346.25,0.64502,142.36,132.21,1.4493,0.16446,2.182e7,6113,45.764,0.80555,0.97317,0.67015,0.011884,0.12352,2.6045,3.7453,3.4362e-4,0,0,0,0,0.029315,0.0071037,7,248.29,85.413,-2.7382e-5,NaN,28.803,998.05,348.75,0.05,0.021442
1.3313,38.4,57.428,42.168,57.563,42.294,2.6543,3.1929e-5,2.6543,6.8922e-4,3.9427,3.2653,28.61,-80.6,9.7881,10.007,0,0.0074011,1.2145e-7,116308,55332,345.93,0.64439,142.84,132.37,1.4961,0.17026,22587186,6102.1,48.305,0.80587,0.95857,0.67002,0.012085,0.12377,2.3271,3.4488,5.0024e-5,0,0,0,0,0.033425,0.0073753,7,248.29,85.286,-3.4329e-5,NaN,28.793,997.92,348.75,0.05,0.02162
1.3813,41.325,59.539,42.116,59.681,42.251,2.8556,3.8311e-5,2.8556,7.687e-4,4.109,3.3654,28.61,-80.6,9.7881,9.694,0,0.0081159,1.9299e-7,116137,55162,345.61,0.64377,143.06,132.52,1.5057,0.17638,23397197,6091.1,51.504,0.80622,0.95246,0.66988,0.012298,0.12404,2.2139,3.2962,2.0589e-5,0,0,0,0,0.037453,0.0076466,7,248.29,85.146,-4.4718e-5,NaN,28.782,997.79,348.74,0.05,0.021797
1.4313,44.354,61.647,42.063,61.795,42.211,3.0653,4.5367e-5,3.0653,8.48e-4,4.281,3.5344,28.61,-80.6,9.788,9.0845,0,0.0088451,1.4248e-7,115967,54991,345.3,0.64315,143.51,132.67,1.548,0.18226,24174609,6080.2,54.267,0.80656,0.94,0.66973,0.012503,0.12432,2.0008,3.056,-2.2225e-4,0,0,0,0,0.041664,0.0079176,7,248.29,84.994,-5.4118e-5,NaN,28.772,997.65,348.73,0.05,0.021973
1.4813,47.489,63.752,42.007,63.908,42.172,3.2838,5.3122e-5,3.2838,9.2687e-4,4.463,3.7221,28.61,-80.6,9.788,8.472,0,0.0095561,1.2121e-7,115796,54820,344.99,0.64252,144,132.83,1.5961,0.18812,2.495e7,6069.3,57.029,0.8069,0.92734,0.66959,0.012708,0.1246,1.7963,2.8214,-2.5914e-4,0,0,0,0,0.045648,0.0081884,7,248.29,84.828,-4.9961e-5,NaN,28.761,997.51,348.73,0.05,0.022151
1.5313,50.729,65.855,41.949,66.019,42.136,3.5117,6.1606e-5,3.5117,0.0010051,4.6548,3.9647,28.61,-80.6,9.788,7.6536,0,0.010254,1.697e-7,115626,54650,344.68,0.6419,144.72,132.98,1.677,0.19382,25702995,6058.4,59.412,0.80723,0.91029,0.66944,0.012909,0.12488,1.5385,2.5305,4.0731e-4,0,0,0,0,0.04952,0.008459,7,248.29,84.65,-4.0362e-5,NaN,28.749,997.36,348.72,0.05,0.022327
1.5813,54.075,67.955,41.889,68.128,42.097,3.7495,7.085e-5,3.7495,0.0010826,4.8595,4.1845,28.61,-80.6,9.788,7.0525,0,0.010913,1.9724e-7,115455,54479,344.37,0.64127,145.3,133.13,1.7388,0.19968,26477182,6047.5,62.203,0.80759,0.89808,0.66929,0.013116,0.12518,1.3604,2.3129,8.8308e-5,0,0,0,0,0.052845,0.0087294,7,248.29,84.459,-2.8716e-5,NaN,28.737,997.21,348.71,0.05,0.022526
1.6313,57.525,70.051,41.826,70.235,42.061,3.9978,8.089e-5,3.9978,0.0011593,5.0748,4.4401,28.61,-80.6,9.788,6.3369,0,0.011558,3.1429e-7,115285,54309,344.07,0.64065,146.07,133.28,1.8266,0.20544,27238346,6036.6,64.792,0.80794,0.88387,0.66913,0.013321,0.12549,1.1609,2.0641,-2.6534e-4,0,0,0,0,0.055999,0.0089994,7,248.29,84.257,-2.1441e-5,NaN,28.725,997.06,348.71,0.05,0.023054
1.6813,61.08,72.144,41.759,72.339,42.027,4.2573,9.1761e-5,4.2573,0.001235,5.3045,4.732,28.61,-80.6,9.788,5.4904,0,0.01215,3.7065e-7,115114,54138,343.77,0.64003,147.09,133.43,1.9509,0.21109,27985411,6025.7,67.157,0.80829,0.86783,0.66897,0.013523,0.12579,0.94269,1.7807,-3.6246e-4,0,0,0,0,0.058612,0.0092693,7,248.29,84.043,-1.9078e-5,NaN,28.712,996.89,348.7,0.05,0.023299
1.7313,64.739,74.234,41.691,74.441,41.983,4.5285,1.035e-4,4.5285,0.0013095,5.5475,4.9403,28.61,-80.6,9.788,5.198,0,0.012703,4.0078e-7,114943,53968,343.48,0.6394,147.48,133.58,1.9852,0.21716,28786588,6014.7,70.653,0.80867,0.86284,0.6688,0.013741,0.12613,0.87183,1.6704,3.9549e-5,0,0,0,0,0.060542,0.0095389,7,248.29,83.82,-1.46e-5,NaN,28.699,996.73,348.69,0.05,0.023499
1.7813,68.503,76.321,41.619,76.541,41.938,4.8121,1.1615e-4,4.8121,0.001383,5.7998,5.1592,28.61,-80.6,9.788,4.91,0,0.013268,4.8939e-7,114773,53797,343.19,0.63878,147.88,133.73,2.0215,0.22323,29587334,6003.8,74.232,0.80906,0.8581,0.66862,0.01396,0.12648,0.80427,1.5629,-5.8951e-5,0,0,0,0,0.06251,0.0098082,7,248.29,83.586,-6.509e-6,NaN,28.686,996.56,348.68,0.05,0.023701
1.8313,72.371,78.403,41.545,78.638,41.895,5.1087,1.2976e-4,5.1087,0.0014553,6.0644,5.4039,28.61,-80.6,9.788,4.5422,0,0.013813,5.6737e-7,114602,53626,342.9,0.63816,148.43,133.88,2.0779,0.22923,30378828,5992.9,77.722,0.80944,0.85219,0.66844,0.014177,0.12683,0.72127,1.4343,-3.6288e-4,0,0,0,0,0.064255,0.010077,7,248.29,83.342,-1.5989e-6,NaN,28.672,996.38,348.67,0.05,0.023899
1.8813,76.343,80.482,41.467,80.732,41.851,5.4188,1.4435e-4,5.4188,0.0015263,6.3412,5.6561,28.61,-80.6,9.7879,4.1952,0,0.014343,7.2086e-7,114432,53456,342.61,0.63753,148.97,134.03,2.1349,0.23524,31171320,5982,81.329,0.80984,0.84692,0.66825,0.014395,0.12719,0.64631,1.3139,-2.2984e-4,0,0,0,0,0.065789,0.010346,7,248.29,83.089,9.5059e-7,NaN,28.658,996.2,348.67,0.05,0.024115
1.9313,80.419,82.557,41.385,82.823,41.81,5.743,1.5999e-4,5.743,0.0015961,6.6314,5.9443,28.61,-80.6,9.7879,3.7071,0,0.014845,9.7456e-7,114261,53285,342.33,0.63691,149.8,134.18,2.2319,0.24112,31947400,5971.1,84.722,0.81023,0.83986,0.66806,0.014611,0.12756,0.54639,1.1527,-6.6675e-5,0,0,0,0,0.067085,0.010614,7,248.29,82.826,-5.4367e-6,NaN,28.643,996.02,348.66,0.05,0.024298
1.9813,84.599,84.628,41.299,84.912,41.77,6.0822,1.7671e-4,6.0822,0.0016647,6.9368,6.2512,28.61,-80.6,9.7879,3.1644,0,0.015298,1.1555e-6,114091,53115,342.05,0.63629,150.82,134.33,2.3557,0.24695,32716002,5960.2,88.102,0.81062,0.83276,0.66787,0.014825,0.12793,0.4429,0.97522,1.0997e-4,0,0,0,0,0.067916,0.010882,7,248.29,82.555,-1.4021e-5,NaN,28.628,995.83,348.65,0.05,0.024481
2.0313,88.882,86.694,41.212,86.998,41.718,6.4369,1.9456e-4,6.4369,0.0017318,7.2563,6.476,28.61,-80.6,9.7879,3.1329,0,0.015716,1.2025e-6,113920,52944,341.77,0.63566,150.89,134.48,2.3447,0.2532,33538837,5949.3,92.599,0.81105,0.83279,0.66766,0.015055,0.12833,0.43718,0.95642,4.8428e-4,0,0,0,0,0.068194,0.01115,7,248.29,82.276,-1.5013e-5,NaN,28.613,995.64,348.64,0.05,0.024686
2.0813,93.268,88.757,41.122,89.08,41.669,6.808,2.1359e-4,6.808,0.0017976,7.5861,6.7305,28.61,-80.6,9.7879,2.9759,0,0.016165,1.1734e-6,113749,52774,341.49,0.63504,151.21,134.62,2.3698,0.25934,34347946,5938.4,96.946,0.81147,0.83124,0.66745,0.015283,0.12874,0.4089,0.90052,4.0814e-4,0,0,0,0,0.068768,0.011418,7,248.29,81.989,-1.5146e-6,NaN,28.597,995.44,348.63,0.05,0.024888
2.1313,97.757,90.814,41.027,91.159,41.622,7.1958,2.3387e-4,7.1958,0.0018621,7.9305,7.0148,28.61,-80.6,9.7879,2.7011,0,0.016582,1.3548e-6,113579,52603,341.22,0.63442,151.8,134.77,2.4322,0.26538,35142694,5927.4,101.14,0.8119,0.82839,0.66723,0.015508,0.12916,0.361,0.80927,-4.4045e-4,0,0,0,0,0.069116,0.011685,7,248.29,81.694,2.6179e-5,NaN,28.581,995.23,348.62,0.05,0.025065
2.1813,102.35,92.866,40.927,93.236,41.575,7.6012,2.5544e-4,7.6012,0.0019254,8.289,7.3131,28.61,-80.6,9.7879,2.3919,0,0.016977,1.6894e-6,113408,52432,340.95,0.63379,152.49,134.92,2.5109,0.27138,35932105,5916.5,105.37,0.81232,0.82544,0.66702,0.015732,0.12957,0.30955,0.70772,-4.224e-4,0,0,0,0,0.069284,0.011951,7,248.29,81.392,4.6804e-5,NaN,28.565,995.03,348.61,0.05,0.025267
2.2313,107.04,94.914,40.825,95.308,41.526,8.025,2.7838e-4,8.025,0.0019875,8.6626,7.599,28.61,-80.6,9.7879,2.1864,0,0.017336,1.9852e-6,113238,52262,340.69,0.63317,152.99,135.06,2.5605,0.27747,36733065,5905.6,109.91,0.81276,0.82383,0.66679,0.015961,0.13001,0.27681,0.63975,-2.9071e-4,0,0,0,0,0.069108,0.012218,7,248.29,81.083,6.3844e-5,NaN,28.548,994.81,348.6,0.05,0.02545
2.2813,111.84,96.956,40.72,97.378,41.474,8.4677,3.0275e-4,8.4677,0.0020485,9.05,7.8725,28.61,-80.6,9.7878,2.0782,0,0.017686,2.2428e-6,113067,52091,340.42,0.63255,153.26,135.21,2.5788,0.28365,37545959,5894.7,114.76,0.81321,0.82326,0.66656,0.016195,0.13046,0.26005,0.60196,2.532e-4,0,0,0,0,0.068835,0.012484,7,248.29,80.768,7.6199e-5,NaN,28.531,994.6,348.59,0.05,0.025634
2.3313,116.74,98.993,40.607,99.443,41.428,8.9302,3.2862e-4,8.9302,0.0021084,9.452,8.2083,28.61,-80.6,9.7878,1.6727,0,0.018014,2.7525e-6,112897,51921,340.16,0.63192,154.32,135.36,2.709,0.28953,38318985,5883.8,119.11,0.81365,0.82027,0.66633,0.016419,0.1309,0.20002,0.47307,-1.6465e-4,0,0,0,0,0.068541,0.012749,7,248.29,80.446,1.0094e-4,NaN,28.513,994.37,348.58,0.05,0.025821
2.3812,121.74,101.02,40.492,101.51,41.38,9.4132,3.5607e-4,9.4132,0.0021673,9.8715,8.5279,28.61,-80.6,9.7878,1.377,0,0.018265,3.448e-6,112726,51750,339.91,0.6313,155.16,135.5,2.8082,0.29551,39104645,5872.9,123.8,0.8141,0.81865,0.6661,0.016647,0.13135,0.15908,0.37928,-1.9778e-4,0,0,0,0,0.067647,0.013014,7,248.29,80.12,1.3355e-4,NaN,28.496,994.15,348.57,0.05,0.026005
2.4312,126.84,103.05,40.37,103.56,41.333,9.9176,3.8519e-4,9.9176,0.0022253,10.307,8.8675,28.61,-80.6,9.7878,0.98682,0,0.018479,5.1473e-6,112555,51580,339.65,0.63068,156.36,135.65,2.9588,0.30138,39875445,5862,128.47,0.81454,0.81692,0.66586,0.016872,0.13181,0.10872,0.25552,2.6624e-4,0,0,0,0,0.06657,0.013279,7,248.29,79.789,1.6866e-4,NaN,28.477,993.92,348.56,0.05,0.026187
2.4812,132.04,105.07,40.243,105.62,41.286,10.444,4.1605e-4,10.444,0.0022824,10.76,9.2235,28.61,-80.6,9.7878,0.49958,0,0.018594,1.0708e-5,112385,51409,339.4,0.63005,158.03,135.79,3.1767,0.30714,4.063e7,5851.1,133.18,0.81498,0.81561,0.66563,0.017094,0.13226,0.051696,0.099536,-4.1121e-4,0,0,0,0,0.064908,0.013544,7,248.29,79.455,2.1272e-4,NaN,28.459,993.68,348.54,0.05,0.026371
2.5312,137.35,107.08,40.106,107.67,41.242,10.994,4.4877e-4,10.994,0.0023388,11.231,9.6109,28.61,-80.6,9.7878,0.2257,0,-0.018593,2.5841e-5,112214,51238,339.15,0.62943,159.07,135.93,3.3052,0.31262,41349048,5840.1,137.93,0.81541,0.81554,0.6654,0.017306,0.13271,0.022507,0.13699,3.3591e-4,0,0,0,0,-0.062647,0.013808,7,248.29,79.12,2.5839e-4,NaN,28.44,993.44,348.53,0.05,0.026574
2.5812,142.75,109.09,39.963,109.71,41.193,11.568,4.8344e-4,11.568,0.0023946,11.722,9.9898,28.61,-80.6,9.7877,0.81873,0,-0.018414,7.5809e-6,112044,51068,338.9,0.62881,156.94,136.08,2.9806,0.31822,42082423,5829.2,143.22,0.81585,0.8175,0.66516,0.017523,0.13316,0.088348,0.32271,-7.6891e-6,0,0,0,0,-0.059309,0.014071,7,248.29,78.787,3.1415e-4,NaN,28.421,993.2,348.52,0.05,0.026752
2.6312,148.26,111.08,39.823,111.76,41.139,12.166,5.2017e-4,12.166,0.0024497,12.231,10.325,28.61,-80.6,9.7877,1.1159,0,-0.018136,5.6962e-6,111873,50897,338.66,0.62818,156,136.22,2.8256,0.32409,42851961,5818.3,148.85,0.81632,0.81934,0.66491,0.017753,0.13365,0.125,0.40852,-3.2907e-5,0,0,0,0,-0.05547,0.014334,7,248.29,78.458,3.6314e-4,NaN,28.401,992.95,348.51,0.05,0.026929
2.6812,153.86,113.08,39.689,113.79,41.083,12.791,5.5905e-4,12.791,0.0025042,12.755,10.61,28.61,-80.6,9.7877,1.1741,0,-0.017809,5.6501e-6,111703,50727,338.42,0.62756,155.84,136.36,2.7816,0.3302,43651880,5807.4,154.63,0.81681,0.82015,0.66464,0.017993,0.13417,0.13248,0.41989,-3.2044e-4,0,0,0,0,-0.051529,0.014597,7,248.29,78.134,4.2436e-4,NaN,28.381,992.69,348.5,0.05,0.027106
2.7312,159.56,115.06,39.555,115.83,41.024,13.442,6.002e-4,13.442,0.0025583,13.293,10.882,28.61,-80.6,9.7877,1.1982,0,-0.017475,5.6509e-6,111532,50556,338.18,0.62694,155.78,136.51,2.7527,0.33634,44455486,5796.5,160.51,0.81731,0.82079,0.66437,0.018235,0.13471,0.13563,0.4214,-2.4309e-4,0,0,0,0,-0.047822,0.014859,7,248.29,77.817,5.0321e-4,NaN,28.361,992.43,348.49,0.05,0.027283
2.7812,165.37,117.04,39.415,117.85,40.966,14.12,6.4375e-4,14.12,0.0026121,13.845,11.163,28.61,-80.6,9.7877,1.2886,0,-0.017117,5.3466e-6,111361,50386,337.95,0.62631,155.52,136.65,2.6957,0.34239,45247514,5785.6,166.51,0.8178,0.82182,0.66409,0.018475,0.13524,0.14749,0.44223,-3.6903e-4,0,0,0,0,-0.044281,0.01512,7,248.29,77.505,5.9523e-4,NaN,28.34,992.17,348.47,0.05,0.02746
2.8312,171.27,119.01,39.272,119.88,40.907,14.827,6.8985e-4,14.827,0.0026658,14.411,11.448,28.61,-80.6,9.7877,1.4126,0,-0.016725,4.9365e-6,111191,50215,337.71,0.62569,155.17,136.79,2.6256,0.34839,46031829,5774.7,172.61,0.8183,0.82311,0.66381,0.018714,0.13578,0.16412,0.47136,6.8562e-5,0,0,0,0,-0.040832,0.015382,7,248.29,77.201,6.9916e-4,NaN,28.319,991.9,348.46,0.05,0.027643
2.8812,177.27,120.97,39.12,121.9,40.849,15.562,7.3865e-4,15.562,0.0027196,14.992,11.755,28.61,-80.6,9.7876,1.6405,0,-0.016283,4.3933e-6,111020,50044,337.48,0.62506,154.54,136.93,2.5159,0.35423,46795900,5763.7,178.86,0.8188,0.82522,0.66353,0.018948,0.13631,0.19578,0.52951,4.2063e-4,0,0,0,0,-0.037438,0.015642,7,248.29,76.904,8.0139e-4,NaN,28.298,991.63,348.45,0.05,0.027821
2.9312,183.37,122.93,38.954,123.91,40.792,16.326,7.903e-4,16.326,0.0027735,15.589,12.107,28.61,-80.6,9.7876,2.0276,0,-0.015753,3.7818e-6,110850,49874,337.26,0.62444,153.54,137.07,2.353,0.35985,47528820,5752.8,185.36,0.81927,0.82893,0.66327,0.019174,0.13683,0.2528,0.62912,-3.7468e-4,0,0,0,0,-0.033962,0.015902,7,248.29,76.615,9.0445e-4,NaN,28.276,991.36,348.43,0.05,0.027997
2.9812,189.56,124.88,38.794,125.92,40.732,17.121,8.4495e-4,17.121,0.0028277,16.204,12.414,28.61,-80.6,9.7876,2.2598,0,-0.01512,3.6373e-6,110679,49703,337.03,0.62382,152.99,137.21,2.2538,0.36562,48282128,5741.9,191.93,0.81977,0.83165,0.66298,0.019407,0.13738,0.28902,0.68122,2.5027e-4,0,0,0,0,-0.030306,0.016162,7,248.29,76.337,0.0010212,NaN,28.254,991.07,348.42,0.05,0.028175
3.0312,195.85,126.82,38.632,127.93,40.671,17.947,9.0279e-4,17.947,0.0028822,16.832,12.717,28.61,-80.6,9.7876,2.489,0,-0.014432,3.3329e-6,110509,49533,336.81,0.62319,152.47,137.35,2.1597,0.37136,49030851,5731,198.63,0.82027,0.83455,0.6627,0.019641,0.13793,0.32621,0.73079,1.0904e-4,0,0,0,0,-0.026767,0.016421,7,248.29,76.071,0.001142,NaN,28.231,990.79,348.41,0.05,0.028352
3.0812,202.24,128.75,38.475,129.93,40.609,18.804,9.6399e-4,18.804,0.0029372,17.477,12.991,28.61,-80.6,9.7876,2.6526,0,-0.013669,2.8559e-6,110338,49362,336.59,0.62257,152.12,137.49,2.0896,0.37716,49781808,5720.1,205.37,0.82078,0.83689,0.66241,0.019878,0.13849,0.35367,0.76232,2.3713e-4,0,0,0,0,-0.023281,0.01668,7,248.29,75.818,0.0012513,NaN,28.197,990.36,348.39,0.05,0.028529
3.1312,208.73,130.67,38.323,131.92,40.545,19.695,0.0010287,19.695,0.0029928,18.133,13.237,28.61,-80.6,9.7875,2.7595,0,-0.012865,2.9162e-6,110167,49192,336.37,0.62195,151.9,137.63,2.0385,0.38302,50530550,5709.2,212.09,0.8213,0.83867,0.66211,0.020118,0.13907,0.37204,0.77795,2.6248e-4,0,0,0,0,-0.020003,0.016938,7,248.29,75.579,0.001355,NaN,28.139,989.64,348.35,0.05,0.028707
3.1812,215.31,132.59,38.158,133.91,40.482,20.618,0.0010972,20.618,0.003049,18.803,13.52,28.61,-80.6,9.7875,2.9866,0,-0.01201,2.5333e-6,1.1e5,49021,336.16,0.62132,151.44,137.77,1.9526,0.38867,51251294,5698.3,219.09,0.8218,0.84196,0.66182,0.020351,0.13964,0.41205,0.82142,4.5574e-4,0,0,0,0,-0.016931,0.017196,7,248.29,75.355,0.0014552,NaN,28.08,988.92,348.32,0.05,0.028885
3.2312,221.99,134.49,38.01,135.9,40.415,21.575,0.0011695,21.575,0.0031059,19.486,13.735,28.61,-80.6,9.7875,3.067,0,-0.011085,2.276e-6,109826,48850,335.95,0.6207,151.29,137.91,1.9115,0.39448,51992583,5687.4,225.94,0.82233,0.84352,0.66151,0.020592,0.14023,0.42658,0.82968,-4.4721e-6,0,0,0,0,-0.014005,0.017453,7,248.29,75.147,0.0015404,NaN,28.02,988.18,348.28,0.05,0.029061
3.2812,228.76,136.39,37.85,137.88,40.35,22.567,0.001246,22.567,0.0031635,20.179,13.982,28.61,-80.6,9.7875,3.2471,0,-0.010133,2.4672e-6,109656,48680,335.74,0.62008,150.95,138.05,1.8427,0.40011,52708634,5676.4,233.06,0.82285,0.84643,0.66121,0.020827,0.14081,0.45974,0.85882,2.336e-4,0,0,0,0,-0.011378,0.017709,7,248.29,74.956,0.0016307,NaN,27.96,987.44,348.24,0.05,0.02926
3.3312,235.62,138.29,37.737,139.85,40.275,23.593,0.0013266,23.593,0.0032217,20.883,14.069,28.61,-80.6,9.7875,3.0942,0,-0.0091279,2.4655e-6,109485,48509,335.53,0.61945,151.26,138.18,1.8684,0.4062,53483217,5665.5,239.61,0.82341,0.84498,0.66088,0.021082,0.14145,0.43167,0.81527,-4.626e-6,0,0,0,0,-0.0089601,0.017965,7,248.29,74.783,0.0017313,NaN,27.899,986.68,348.21,0.05,0.029485
3.3812,242.59,140.17,37.641,141.83,40.195,24.655,0.0014117,24.655,0.0032807,21.588,14.1,28.61,-80.6,9.7874,2.8532,0,-0.008188,2.8353e-6,109315,48339,335.33,0.61883,151.77,138.32,1.9218,0.41241,54273639,5654.6,246.09,0.82399,0.84254,0.66054,0.021343,0.14211,0.38868,0.75368,2.0076e-4,0,0,0,0,-0.0069957,0.018221,7,248.29,74.627,0.0018502,NaN,27.837,985.92,348.17,0.05,0.02974
3.4312,249.64,142.06,37.528,143.8,40.117,25.752,0.0015015,25.752,0.0033406,22.296,14.18,28.61,-80.6,9.7874,2.763,0,-0.0072683,2.5908e-6,109144,48168,335.13,0.61821,151.98,138.46,1.9319,0.41837,55029442,5643.7,252.9,0.82456,0.84203,0.6602,0.021596,0.14275,0.37303,0.72578,3.4052e-4,0,0,0,0,-0.0053577,0.018477,7,248.29,74.488,0.0019742,NaN,27.774,985.14,348.13,0.05,0.029982
3.4812,256.79,143.93,37.402,145.76,40.041,26.885,0.0015961,26.885,0.0034015,23.008,14.297,28.61,-80.6,9.7874,2.7869,0,-0.0063446,2.2503e-6,108973,47998,334.93,0.61758,151.94,138.59,1.9073,0.42411,55755105,5632.8,259.94,0.8251,0.84288,0.65988,0.02184,0.14338,0.37725,0.72362,-4.0666e-4,0,0,0,0,-0.0039736,0.018732,7,248.29,74.366,0.0020857,NaN,27.71,984.36,348.09,0.05,0.030172
3.5312,264.04,145.8,37.262,147.72,39.968,28.053,0.0016957,28.053,0.0034633,23.728,14.455,28.61,-80.6,9.7874,2.9254,0,-0.0053822,2.225e-6,108803,47827,334.74,0.61696,151.67,138.73,1.8482,0.42962,56448361,5621.9,267.21,0.82563,0.84511,0.65956,0.022076,0.14399,0.40163,0.74536,-3.8126e-4,0,0,0,0,-0.0027873,0.018986,7,248.29,74.26,0.0022012,NaN,27.645,983.56,348.05,0.05,0.030383
3.5812,271.37,147.67,37.147,149.68,39.888,29.258,0.0018006,29.258,0.0035261,24.454,14.531,28.61,-80.6,9.7873,2.9187,0,-0.0043733,1.796e-6,108632,47656,334.54,0.61634,151.69,138.86,1.833,0.43532,57166847,5611,274.29,0.82619,0.8456,0.65923,0.022321,0.14464,0.40052,0.73577,3.1094e-4,0,0,0,0,-0.0017928,0.01924,7,248.29,74.172,0.0023079,NaN,27.58,982.75,348.01,0.05,0.0306
3.6312,278.8,149.53,37.047,151.63,39.804,30.498,0.0019109,30.498,0.0035899,25.183,14.555,28.61,-80.6,9.7873,2.8404,0,-0.003372,1.8364e-6,108462,47486,334.35,0.61571,151.87,139,1.8395,0.44111,57895658,5600,281.27,0.82676,0.84522,0.65889,0.022572,0.1453,0.38679,0.71215,4.8943e-5,0,0,0,0,-0.0010383,0.019494,7,248.29,74.102,0.0023958,NaN,27.514,981.94,347.97,0.05,0.030783
3.6812,286.32,151.38,36.945,153.58,39.719,31.776,0.0020268,31.776,0.0036546,25.912,14.583,28.61,-80.6,9.7873,2.8037,0,-0.0023713,1.5855e-6,108291,47315,334.16,0.61509,151.97,139.13,1.8337,0.4468,58608516,5589.1,288.36,0.82732,0.84535,0.65855,0.022819,0.14595,0.38045,0.69782,2.279e-4,0,0,0,0,-5.006e-4,0.019747,7,248.29,74.051,0.0024872,NaN,27.447,981.11,347.93,0.05,0.030966
3.7312,293.94,153.23,36.861,155.53,39.63,33.09,0.0021485,33.09,0.0037202,26.642,14.553,28.61,-80.6,9.7873,2.6831,0,-0.0013711,1.9829e-6,108121,47145,333.98,0.61447,152.25,139.27,1.8542,0.45259,59335245,5578.2,295.34,0.8279,0.84451,0.6582,0.023072,0.14663,0.35971,0.66725,1.0693e-4,0,0,0,0,-1.6313e-4,0.02,7,248.29,74.017,0.0025843,NaN,27.379,980.27,347.89,0.05,0.031164
3.7812,301.65,155.07,36.825,157.47,39.528,34.44,0.0022761,34.44,0.0037867,27.367,14.367,28.61,-80.6,9.7873,2.2916,0,-4.2469e-4,1.78e-6,107950,46974,333.79,0.61384,153.16,139.4,1.9656,0.45888,60125258,5567.3,302.03,0.82854,0.84087,0.65782,0.023349,0.14737,0.29497,0.58005,2.5858e-4,0,0,0,0,-1.523e-5,0.020252,7,248.29,74.001,0.0027034,NaN,27.31,979.42,347.85,0.05,0.031365
3.8312,309.45,156.92,36.76,159.41,39.432,35.826,0.0024099,35.826,0.0038541,28.083,14.267,28.61,-80.6,9.7872,2.0981,0,4.0991e-4,1.8014e-6,107779,46804,333.61,0.61322,153.65,139.53,2.0164,0.46478,60862688,5556.4,309.09,0.82914,0.83957,0.65745,0.02361,0.14808,0.26454,0.53355,1.5506e-4,0,0,0,0,1.3833e-5,0.020504,7,248.29,74.001,0.0028166,NaN,27.24,978.57,347.81,0.05,0.031548
3.8812,317.34,158.76,36.686,161.35,39.337,37.248,0.0025501,37.248,0.0039226,28.796,14.196,28.61,-80.6,9.7872,1.9886,0,0.0012354,2.0338e-6,107609,46633,333.43,0.6126,153.94,139.66,2.0394,0.47048,61572829,5545.5,316.28,0.82973,0.83915,0.65709,0.023863,0.14878,0.24779,0.50478,-3.2357e-4,0,0,0,0,1.2265e-4,0.020756,7,248.29,74.016,0.0029485,NaN,27.17,977.7,347.76,0.05,0.031731
3.9312,325.32,160.59,36.615,163.28,39.24,38.706,0.0026968,38.706,0.003992,29.504,14.11,28.61,-80.6,9.7872,1.8786,0,0.0020231,1.9199e-6,107438,46462,333.26,0.61197,154.24,139.8,2.0637,0.47615,62277562,5534.6,323.5,0.83032,0.83878,0.65673,0.024117,0.14947,0.2313,0.47731,-4.2416e-4,0,0,0,0,3.2123e-4,0.021007,7,248.29,74.045,0.0030947,NaN,27.099,976.82,347.72,0.05,0.031913
3.9812,333.4,162.43,36.529,165.21,39.147,40.199,0.0028502,40.199,0.0040624,30.21,14.076,28.61,-80.6,9.7872,1.894,0,0.0028037,2.2115e-6,107268,46292,333.09,0.61135,154.22,139.93,2.0416,0.48152,62941934,5523.7,330.82,0.83089,0.83948,0.65639,0.024358,0.15014,0.23364,0.47612,1.8706e-4,0,0,0,0,6.0339e-4,0.021258,7,248.29,74.089,0.003256,NaN,27.027,975.93,347.68,0.05,0.032096
4.0312,341.57,164.25,36.445,167.14,39.054,41.727,0.0030106,41.727,0.0041339,30.914,14.035,28.61,-80.6,9.7871,1.9157,0,0.0036109,2.1869e-6,107097,46121,332.91,0.61073,154.18,140.06,2.0173,0.48683,63597551,5512.7,338.15,0.83145,0.84024,0.65604,0.024599,0.15081,0.23694,0.47742,-9.0609e-5,0,0,0,0,9.7939e-4,0.021508,7,248.29,74.146,0.0034334,NaN,26.954,975.03,347.63,0.05,0.032295
4.0812,349.82,166.08,36.368,169.06,38.957,43.29,0.0031782,43.29,0.0042064,31.615,13.967,28.61,-80.6,9.7871,1.9101,0,0.0044283,2.148e-6,106927,45951,332.75,0.6101,154.21,140.19,2.0032,0.49216,64253764,5501.8,345.48,0.83202,0.84076,0.65569,0.024841,0.15149,0.23615,0.47128,2.5514e-4,0,0,0,0,0.0014416,0.021758,7,248.29,74.219,0.0036125,NaN,26.88,974.13,347.59,0.05,0.032461
4.1312,358.17,167.9,36.349,170.98,38.881,44.888,0.0033531,44.888,0.00428,32.311,13.802,28.61,-80.6,9.7871,1.7332,0,0.0052343,2.202e-6,106756,45780,332.58,0.60948,154.7,140.32,2.0544,0.49781,64951159,5494.1,352.76,0.83263,0.83989,0.65531,0.0251,0.15222,0.21011,0.42973,4.9484e-4,0,0,0,0,0.0019692,0.022007,7,248.29,74.306,0.0037988,NaN,26.806,973.21,347.54,0.05,0.032627
4.1812,366.61,169.72,36.365,172.9,38.863,46.521,0.0035357,46.521,0.0043546,32.998,13.707,28.61,-80.6,9.7871,1.6839,0,0.0059777,2.1845e-6,106591,45615,332.42,0.60888,154.85,140.44,2.0583,0.50316,65607483,5492.3,360.11,0.83321,0.84008,0.65495,0.025346,0.15291,0.20305,0.41576,1.8527e-4,0,0,0,0,0.0025146,0.022256,7,248.29,74.407,0.0039956,NaN,26.731,972.28,347.5,0.05,0.032793
4.2312,375.15,171.54,36.396,174.81,38.837,48.188,0.0037261,48.188,0.0044304,33.681,13.553,28.61,-80.6,9.787,1.5477,0,0.0067287,1.8514e-6,106433,45457,332.27,0.6083,155.25,140.56,2.0982,0.50867,66283656,5490.7,367.5,0.83382,0.83966,0.65458,0.025601,0.15364,0.18376,0.38209,1.1561e-4,0,0,0,0,0.0031183,0.022505,7,248.29,74.521,0.0041944,NaN,26.655,971.34,347.45,0.05,0.032958
4.2812,383.77,173.36,36.45,176.73,38.802,49.889,0.0039246,49.889,0.0045073,34.353,13.306,28.61,-80.599,9.787,1.2626,0,0.0073862,1.603e-6,106276,45301,332.12,0.60773,156.11,140.68,2.2036,0.5145,6.7e7,5489,375.03,0.83446,0.8384,0.65418,0.025872,0.15441,0.145,0.31597,4.5669e-4,0,0,0,0,0.0036739,0.022755,7,248.29,74.648,0.0043969,NaN,26.578,970.39,347.41,0.05,0.033172
4.3312,392.48,175.19,36.498,178.65,38.767,51.623,0.0041313,51.623,0.0045853,35.013,13.069,28.61,-80.599,9.787,1.011,0,0.0079316,1.075e-6,106120,45144,331.98,0.60715,156.92,140.8,2.3022,0.52024,67703467,5487.4,382.74,0.83511,0.83766,0.65378,0.026141,0.15518,0.11264,0.25537,1.4864e-4,0,0,0,0,0.0041445,0.023004,7,248.29,74.786,0.0045834,NaN,26.5,969.44,347.36,0.05,0.033351
4.3812,401.29,177.01,36.558,180.57,38.725,53.39,0.0043466,53.39,0.0046645,35.66,12.771,28.61,-80.599,9.7869,0.65017,0,0.0083583,1.0465e-6,105963,44987,331.84,0.60658,158.16,140.92,2.463,0.52624,68438934,5485.8,390.85,0.83578,0.83686,0.65336,0.026424,0.156,0.069225,0.16575,-1.8801e-4,0,0,0,0,0.0044993,0.023253,7,248.29,74.933,0.0047893,NaN,26.422,968.47,347.31,0.05,0.033501
4.4312,410.18,178.85,36.608,182.49,38.682,55.189,0.0045705,55.189,0.004745,36.291,12.496,28.61,-80.599,9.7869,0.33797,0,0.0085985,4.2706e-7,105806,44830,331.7,0.60601,159.33,141.03,2.6143,0.53214,6.916e7,5484.1,399.2,0.83646,0.83675,0.65294,0.026704,0.15681,0.034543,0.085367,-2.8252e-4,0,0,0,0,0.0046579,0.023502,7,248.29,75.086,0.005049,NaN,26.342,967.49,347.26,0.05,0.0337
4.4812,419.17,180.68,36.635,184.41,38.652,57.019,0.0048033,57.019,0.0048267,36.912,12.323,28.61,-80.599,9.7869,0.2425,0,0.0087326,2.4211e-7,105649,44674,331.56,0.60543,159.73,141.15,2.6541,0.53752,69811425,5482.5,407.12,0.83707,0.83723,0.65255,0.026961,0.15756,0.024473,0.060634,-4.0039e-4,0,0,0,0,0.00471,0.023751,7,248.29,75.242,0.0053532,NaN,26.262,966.5,347.21,0.05,0.033854
4.5312,428.25,182.51,36.663,186.33,38.618,58.88,0.0050454,58.88,0.0049096,37.524,12.131,28.61,-80.599,9.7869,0.11136,0,0.0088349,-2.2286e-6,105493,44517,331.42,0.60486,160.28,141.27,2.7163,0.54299,70472847,5480.8,415.27,0.83771,0.83774,0.65215,0.027224,0.15833,0.011041,0.025227,3.4927e-4,0,0,0,0,0.0047257,0.024,7,248.29,75.4,0.0056707,NaN,26.181,965.5,347.16,0.05,0.034004
4.5812,437.42,184.35,36.699,188.25,38.575,60.771,0.0052969,60.771,0.004994,38.125,11.882,28.61,-80.599,9.7868,0.13475,0,-0.0088227,-6.9458e-6,105336,44360,331.28,0.60429,160.21,141.38,2.6898,0.54875,7.117e7,5479.2,424.02,0.83838,0.83843,0.65173,0.027503,0.15915,0.013407,0.041003,-1.2964e-4,0,0,0,0,-0.0046157,0.024249,7,248.29,75.559,0.0059667,NaN,26.099,964.49,347.12,0.05,0.034154
4.6312,446.69,186.19,36.733,190.17,38.531,62.692,0.0055581,62.692,0.0050797,38.713,11.635,28.61,-80.599,9.7868,0.35725,0,-0.0086651,-4.6066e-6,105179,44203,331.15,0.60371,159.36,141.5,2.5513,0.55446,71860588,5477.6,432.92,0.83905,0.83938,0.65131,0.027781,0.15997,0.036653,0.098023,-3.6426e-4,0,0,0,0,-0.0043622,0.024497,7,248.29,75.717,0.0062869,NaN,26.017,963.48,347.07,0.05,0.034316
4.6812,456.04,188.02,36.754,192.09,38.495,64.642,0.0058293,64.642,0.0051668,39.29,11.448,28.61,-80.599,9.7868,0.45689,0,-0.0084101,-3.6773e-6,105022,44047,331.02,0.60314,159,141.61,2.4845,0.55988,72511347,5475.9,441.4,0.8397,0.84024,0.6509,0.028047,0.16075,0.047518,0.12177,-2.7228e-4,0,0,0,0,-0.0040312,0.024746,7,248.29,75.871,0.0066171,NaN,25.933,962.45,347.01,0.05,0.034458
4.7312,465.49,189.86,36.79,194,38.441,66.621,0.0061106,66.621,0.0052553,39.857,11.146,28.61,-80.599,9.7868,0.75045,0,-0.0080809,-3.0428e-6,104866,43890,330.89,0.60257,157.97,141.73,2.3211,0.56581,73227403,5474.3,451.18,0.84041,0.84184,0.65045,0.02834,0.16162,0.081108,0.19181,3.9795e-4,0,0,0,0,-0.0036452,0.024994,7,248.29,76.019,0.0069297,NaN,25.849,961.41,346.96,0.05,0.034643
4.7812,475.03,191.71,36.819,195.92,38.39,68.627,0.0064025,68.627,0.0053453,40.406,10.87,28.61,-80.599,9.7867,0.98302,0,-0.0075555,-3.1813e-6,104709,43733,330.76,0.602,157.22,141.84,2.1968,0.57163,73926170,5472.7,460.92,0.84112,0.84355,0.65001,0.02863,0.16248,0.10943,0.24332,4.3222e-4,0,0,0,0,-0.003123,0.025242,7,248.29,76.16,0.0072425,NaN,25.764,960.36,346.91,0.05,0.034785
4.8312,484.66,193.55,36.831,197.83,38.351,70.661,0.0067051,70.661,0.0054368,40.945,10.689,28.61,-80.599,9.7867,1.0692,0,-0.0069604,-2.8498e-6,104552,43576,330.64,0.60142,156.96,141.95,2.1442,0.57709,74577749,5471,469.87,0.84179,0.84466,0.64959,0.028903,0.16329,0.12032,0.26074,-1.4493e-4,0,0,0,0,-0.0026013,0.02549,7,248.29,76.291,0.0075627,NaN,25.678,959.3,346.86,0.05,0.034926
4.8812,494.38,195.39,36.839,199.75,38.313,72.722,0.0070186,72.722,0.0055298,41.476,10.525,28.61,-80.599,9.7867,1.1402,0,-0.0063195,-3.0955e-6,104395,43420,330.51,0.60085,156.76,142.07,2.0994,0.58255,75226586,5469.4,478.85,0.84246,0.84572,0.64916,0.029179,0.16412,0.12946,0.27361,-2.4047e-4,0,0,0,0,-0.0021049,0.025737,7,248.29,76.411,0.0078666,NaN,25.591,958.23,346.81,0.05,0.035068
4.9312,504.2,197.24,36.856,201.66,38.26,74.809,0.0073432,74.809,0.0056241,41.997,10.271,28.61,-80.599,9.7866,1.3396,0,-0.0056154,-2.9602e-6,104239,43263,330.39,0.60028,156.18,142.18,1.9995,0.58838,75923043,5467.8,489.05,0.84318,0.84765,0.6487,0.029475,0.16501,0.15583,0.31343,2.9701e-4,0,0,0,0,-0.0016298,0.025985,7,248.29,76.518,0.0081827,NaN,25.504,957.15,346.75,0.05,0.035229
4.9812,514.11,199.08,36.878,203.57,38.194,76.921,0.0076792,76.921,0.00572,42.503,9.9391,28.61,-80.599,9.7866,1.6342,0,-0.0047688,-2.5886e-6,104082,43106,330.27,0.5997,155.35,142.29,1.8653,0.59453,76658360,5466.1,500.45,0.84396,0.85053,0.64821,0.02979,0.16595,0.19679,0.36834,1.1261e-4,0,0,0,0,-0.0011515,0.026232,7,248.29,76.612,0.0084755,NaN,25.415,956.06,346.7,0.05,0.035375
5.0312,524.11,200.93,36.883,205.47,38.144,79.059,0.0080269,79.059,0.0058173,42.994,9.7271,28.61,-80.599,9.7866,1.7782,0,-0.0037891,-2.5602e-6,103925,42949,330.15,0.59913,154.98,142.4,1.7963,0.60033,77345921,5464.5,510.79,0.84469,0.85243,0.64775,0.03009,0.16685,0.21772,0.39177,-2.3906e-4,0,0,0,0,-7.1327e-4,0.026478,7,248.29,76.689,0.0087465,NaN,25.326,954.96,346.65,0.05,0.035526
5.0812,534.2,202.77,36.878,207.38,38.096,81.22,0.0083864,81.22,0.005916,43.477,9.5558,28.61,-80.599,9.7865,1.8831,0,-0.0027619,-2.2028e-6,103768,42793,330.03,0.59856,154.72,142.52,1.7439,0.60607,78024817,5462.9,521,0.84542,0.85407,0.64728,0.030389,0.16775,0.23334,0.40684,-1.1233e-4,0,0,0,0,-3.7194e-4,0.026724,7,248.29,76.748,0.0089756,NaN,25.236,953.85,346.59,0.05,0.035674
5.1312,544.38,204.62,36.862,209.28,38.055,83.406,0.0087578,83.406,0.0060162,43.951,9.4537,28.61,-80.599,9.7865,1.9229,0,-0.0016779,-2.0304e-6,103612,42636,329.92,0.59799,154.64,142.63,1.7166,0.61168,78685432,5461.2,530.74,0.84615,0.85516,0.64682,0.030683,0.16864,0.2394,0.41124,2.118e-4,0,0,0,0,-1.348e-4,0.02697,7,248.29,76.788,0.0091677,NaN,25.145,952.73,346.54,0.05,0.03582
5.1812,554.66,206.46,36.821,211.19,38.038,85.616,0.0091414,85.616,0.0061176,44.425,9.5455,28.61,-80.599,9.7865,1.7674,0,-6.0587e-4,-1.8775e-6,103455,42479,329.81,0.59741,155.08,142.74,1.7637,0.61678,79278683,5459.6,538.55,0.84681,0.85448,0.6464,0.030953,0.16945,0.21633,0.38179,-4.059e-4,0,0,0,0,-1.7293e-5,0.027216,7,248.29,76.809,0.0093378,NaN,25.054,951.6,346.48,0.05,0.035966
5.2312,565.03,208.3,36.781,213.09,38.011,87.849,0.0095372,87.849,0.0062203,44.905,9.5894,28.61,-80.599,9.7864,1.6818,0,3.9235e-4,-1.4034e-6,103298,42322,329.69,0.59684,155.34,142.85,1.7852,0.62213,79902026,5458,547.27,0.84751,0.85449,0.64596,0.031239,0.17032,0.20392,0.36361,-2.7342e-4,0,0,0,0,7.13e-6,0.027462,7,248.29,76.81,0.0094687,NaN,24.961,950.46,346.43,0.05,0.036113
5.2812,575.49,210.14,36.746,214.99,37.972,90.106,0.0099454,90.106,0.006324,45.385,9.5706,28.61,-80.599,9.7864,1.6814,0,0.0013947,-1.0737e-6,103141,42166,329.58,0.59627,155.37,142.96,1.7736,0.62777,80561405,5456.3,557.05,0.84826,0.85524,0.64548,0.031542,0.17123,0.20393,0.36141,2.2828e-4,0,0,0,0,8.8505e-5,0.027707,7,248.29,76.794,0.0095507,NaN,24.868,949.31,346.37,0.05,0.036296
